[
{
"id":"150080",
"nome":"Ananindeua",
"estado":"PA",
"regiao":"Regiao Norte",
"latitude":"-1.36391",
"longitude":"-48.3743"
},
{
"id":"160080",
"nome":"Vitória do Jari",
"estado":"AP",
"regiao":"Regiao Norte",
"latitude":"-0.926398",
"longitude":"-52.423978"
},
{
"id":"355030",
"nome":"São Paulo",
"estado":"SP",
"regiao":"Regiao Sudeste",
"latitude":"-23.5329",
"longitude":"-46.6395"
},
{
"id":"150140",
"nome":"Belém",
"estado":"PA",
"regiao":"Regiao Norte",
"latitude":"-1.4554",
"longitude":"-48.4898"
},
{
"id":"160030",
"nome":"Macapá",
"estado":"AP",
"regiao":"Regiao Norte",
"latitude":"0.034934",
"longitude":"-51.0694"
},
{
"id":"130260",
"nome":"Manaus",
"estado":"AM",
"regiao":"Regiao Norte",
"latitude":"-3.11866",
"longitude":"-60.0212"
},
{
"id":"290115",
"nome":"América Dourada",
"estado":"BA",
"regiao":"Regiao Nordeste",
"latitude":"-11.4429",
"longitude":"-41.439"
},
{
"id":"160027",
"nome":"Laranjal do Jari",
"estado":"AP",
"regiao":"Regiao Norte",
"latitude":"-0.804911",
"longitude":"-52.453"
},
{
"id":"310620",
"nome":"Belo Horizonte",
"estado":"MG",
"regiao":"Regiao Sudeste",
"latitude":"-19.9102",
"longitude":"-43.9266"
},
{
"id":"290480",
"nome":"Caatiba",
"estado":"BA",
"regiao":"Regiao Nordeste",
"latitude":"-14.9699",
"longitude":"-40.4092"
},
{
"id":"330455",
"nome":"Rio de Janeiro",
"estado":"RJ",
"regiao":"Regiao Sudeste",
"latitude":"-22.9129",
"longitude":"-43.2003"
},
{
"id":"150070",
"nome":"Anajás",
"estado":"PA",
"regiao":"Regiao Norte",
"latitude":"-0.996811",
"longitude":"-49.9354"
},
{
"id":"150180",
"nome":"Breves",
"estado":"PA",
"regiao":"Regiao Norte",
"latitude":"-1.68036",
"longitude":"-50.4791"
},
{
"id":"150210",
"nome":"Cametá",
"estado":"PA",
"regiao":"Regiao Norte",
"latitude":"-2.24295",
"longitude":"-49.4979"
},
{
"id":"510340",
"nome":"Cuiabá",
"estado":"MT",
"regiao":"Regiao Centro-Oeste",
"latitude":"-15.601",
"longitude":"-56.0974"
},
{
"id":"230440",
"nome":"Fortaleza",
"estado":"CE",
"regiao":"Regiao Nordeste",
"latitude":"-3.71664",
"longitude":"-38.5423"
},
{
"id":"291800",
"nome":"Jequié",
"estado":"BA",
"regiao":"Regiao Nordeste",
"latitude":"-13.8509",
"longitude":"-40.0877"
},
{
"id":"291835",
"nome":"João Dourado",
"estado":"BA",
"regiao":"Regiao Nordeste",
"latitude":"-11.3486",
"longitude":"-41.6548"
},
{
"id":"150520",
"nome":"Oeiras do Pará",
"estado":"PA",
"regiao":"Regiao Norte",
"latitude":"-2.00358",
"longitude":"-49.8628"
},
{
"id":"110020",
"nome":"Porto Velho",
"estado":"RO",
"regiao":"Regiao Norte",
"latitude":"-8.76077",
"longitude":"-63.8999"
},
{
"id":"130420",
"nome":"Tefé",
"estado":"AM",
"regiao":"Regiao Norte",
"latitude":"-3.36822",
"longitude":"-64.7193"
},
{
"id":"320530",
"nome":"Vitória",
"estado":"ES",
"regiao":"Regiao Sudeste",
"latitude":"-20.3155",
"longitude":"-40.3128"
},
{
"id":"150010",
"nome":"Abaetetuba",
"estado":"PA",
"regiao":"Regiao Norte",
"latitude":"-1.72183",
"longitude":"-48.8788"
},
{
"id":"150150",
"nome":"Benevides",
"estado":"PA",
"regiao":"Regiao Norte",
"latitude":"-1.36183",
"longitude":"-48.2434"
},
{
"id":"120010",
"nome":"Brasiléia",
"estado":"AC",
"regiao":"Regiao Norte",
"latitude":"-10.995",
"longitude":"-68.7497"
},
{
"id":"350950",
"nome":"Campinas",
"estado":"SP",
"regiao":"Regiao Sudeste",
"latitude":"-22.9053",
"longitude":"-47.0659"
},
{
"id":"320130",
"nome":"Cariacica",
"estado":"ES",
"regiao":"Regiao Sudeste",
"latitude":"-20.2632",
"longitude":"-40.4165"
},
{
"id":"230400",
"nome":"Coreaú",
"estado":"CE",
"regiao":"Regiao Nordeste",
"latitude":"-3.5415",
"longitude":"-40.6587"
},
{
"id":"312770",
"nome":"Governador Valadares",
"estado":"MG",
"regiao":"Regiao Sudeste",
"latitude":"-18.8545",
"longitude":"-41.9555"
},
{
"id":"291460",
"nome":"Irecê",
"estado":"BA",
"regiao":"Regiao Nordeste",
"latitude":"-11.3033",
"longitude":"-41.8535"
},
{
"id":"291640",
"nome":"Itapetinga",
"estado":"BA",
"regiao":"Regiao Nordeste",
"latitude":"-15.2475",
"longitude":"-40.2482"
},
{
"id":"270430",
"nome":"Maceió",
"estado":"AL",
"regiao":"Regiao Nordeste",
"latitude":"-9.66599",
"longitude":"-35.735"
},
{
"id":"352900",
"nome":"Marília",
"estado":"SP",
"regiao":"Regiao Sudeste",
"latitude":"-22.2171",
"longitude":"-49.9501"
},
{
"id":"240810",
"nome":"Natal",
"estado":"RN",
"regiao":"Regiao Nordeste",
"latitude":"-5.79357",
"longitude":"-35.1986"
},
{
"id":"130330",
"nome":"Novo Aripuanã",
"estado":"AM",
"regiao":"Regiao Norte",
"latitude":"-5.12593",
"longitude":"-60.3732"
},
{
"id":"261110",
"nome":"Petrolina",
"estado":"PE",
"regiao":"Regiao Sul",
"latitude":"-9.38866",
"longitude":"-40.5027"
},
{
"id":"261160",
"nome":"Recife",
"estado":"PE",
"regiao":"Regiao Sul",
"latitude":"-8.04666",
"longitude":"-34.8771"
},
{
"id":"330430",
"nome":"Rio Bonito",
"estado":"RJ",
"regiao":"Regiao Sudeste",
"latitude":"-22.7181",
"longitude":"-42.6276"
},
{
"id":"292740",
"nome":"Salvador",
"estado":"BA",
"regiao":"Regiao Nordeste",
"latitude":"-12.9718",
"longitude":"-38.5011"
},
{
"id":"320500",
"nome":"Serra",
"estado":"ES",
"regiao":"Regiao Sudeste",
"latitude":"-20.121",
"longitude":"-40.3074"
},
{
"id":"221100",
"nome":"Teresina",
"estado":"PI",
"regiao":"Regiao Nordeste",
"latitude":"-5.09194",
"longitude":"-42.8034"
},
{
"id":"432240",
"nome":"Uruguaiana",
"estado":"RS",
"regiao":"Regiao Sul",
"latitude":"-29.7614",
"longitude":"-57.0853"
},
{
"id":"520005",
"nome":"Abadia de Goiás",
"estado":"GO",
"regiao":"Regiao Centro-Oeste",
"latitude":"-16.7573",
"longitude":"-49.4412"
},
{
"id":"310010",
"nome":"Abadia Dos Dourados",
"estado":"MG",
"regiao":"Regiao Sudeste",
"latitude":"-18.4831",
"longitude":"-47.3916"
},
{
"id":"520010",
"nome":"Abadiânia",
"estado":"GO",
"regiao":"Regiao Centro-Oeste",
"latitude":"-16.197",
"longitude":"-48.7057"
},
{
"id":"310020",
"nome":"Abaeté",
"estado":"MG",
"regiao":"Regiao Sudeste",
"latitude":"-19.1551",
"longitude":"-45.4444"
},
{
"id":"230010",
"nome":"Abaiara",
"estado":"CE",
"regiao":"Regiao Nordeste",
"latitude":"-7.34588",
"longitude":"-39.0416"
},
{
"id":"290010",
"nome":"Abaíra",
"estado":"BA",
"regiao":"Regiao Nordeste",
"latitude":"-13.2488",
"longitude":"-41.6619"
},
{
"id":"290020",
"nome":"Abaré",
"estado":"BA",
"regiao":"Regiao Nordeste",
"latitude":"-8.72073",
"longitude":"-39.1162"
},
{
"id":"410010",
"nome":"Abatiá",
"estado":"PR",
"regiao":"Regiao Sul",
"latitude":"-23.3049",
"longitude":"-50.3133"
},
{
"id":"420005",
"nome":"Abdon Batista",
"estado":"SC",
"regiao":"Regiao Sul",
"latitude":"-27.6126",
"longitude":"-51.0233"
},
{
"id":"150013",
"nome":"Abel Figueiredo",
"estado":"PA",
"regiao":"Regiao Norte",
"latitude":"-4.95333",
"longitude":"-48.3933"
},
{
"id":"420010",
"nome":"Abelardo Luz",
"estado":"SC",
"regiao":"Regiao Sul",
"latitude":"-26.5716",
"longitude":"-52.3229"
},
{
"id":"310030",
"nome":"Abre Campo",
"estado":"MG",
"regiao":"Regiao Sudeste",
"latitude":"-20.2996",
"longitude":"-42.4743"
},
{
"id":"260005",
"nome":"Abreu e Lima",
"estado":"PE",
"regiao":"Regiao Sul",
"latitude":"-7.90072",
"longitude":"-34.8984"
},
{
"id":"170025",
"nome":"Abreulândia",
"estado":"TO",
"regiao":"Regiao Norte",
"latitude":"-9.62101",
"longitude":"-49.1518"
},
{
"id":"310040",
"nome":"Acaiaca",
"estado":"MG",
"regiao":"Regiao Sudeste",
"latitude":"-20.362458",
"longitude":"-43.1439"
},
{
"id":"210005",
"nome":"Açailândia",
"estado":"MA",
"regiao":"Regiao Nordeste",
"latitude":"-4.94714",
"longitude":"-47.5004"
},
{
"id":"290030",
"nome":"Acajutiba",
"estado":"BA",
"regiao":"Regiao Nordeste",
"latitude":"-11.6575",
"longitude":"-38.0197"
},
{
"id":"150020",
"nome":"Acará",
"estado":"PA",
"regiao":"Regiao Norte",
"latitude":"-1.95383",
"longitude":"-48.1985"
},
{
"id":"230015",
"nome":"Acarapé",
"estado":"CE",
"regiao":"Regiao Nordeste",
"latitude":"-4.22083",
"longitude":"-38.7055"
},
{
"id":"230020",
"nome":"Acaraú",
"estado":"CE",
"regiao":"Regiao Nordeste",
"latitude":"-2.88769",
"longitude":"-40.1183"
},
{
"id":"240010",
"nome":"Acari",
"estado":"RN",
"regiao":"Regiao Nordeste",
"latitude":"-6.4282",
"longitude":"-36.6347"
},
{
"id":"220005",
"nome":"Acauã",
"estado":"PI",
"regiao":"Regiao Nordeste",
"latitude":"-8.21954",
"longitude":"-41.0831"
},
{
"id":"430003",
"nome":"Aceguá",
"estado":"RS",
"regiao":"Regiao Sul",
"latitude":"-31.8665",
"longitude":"-54.1615"
},
{
"id":"230030",
"nome":"Acopiara",
"estado":"CE",
"regiao":"Regiao Nordeste",
"latitude":"-6.08911",
"longitude":"-39.448395"
},
{
"id":"510010",
"nome":"Acorizal",
"estado":"MT",
"regiao":"Regiao Centro-Oeste",
"latitude":"-15.194",
"longitude":"-56.3632"
},
{
"id":"120001",
"nome":"Acrelândia",
"estado":"AC",
"regiao":"Regiao Norte",
"latitude":"-9.82581",
"longitude":"-66.8972"
},
{
"id":"520013",
"nome":"Acreúna",
"estado":"GO",
"regiao":"Regiao Centro-Oeste",
"latitude":"-17.396443",
"longitude":"-50.3749"
},
{
"id":"240020",
"nome":"Açu",
"estado":"RN",
"regiao":"Regiao Nordeste",
"latitude":"-5.58362",
"longitude":"-36.914"
},
{
"id":"310050",
"nome":"Açucena",
"estado":"MG",
"regiao":"Regiao Sudeste",
"latitude":"-19.0671",
"longitude":"-42.5419"
},
{
"id":"350010",
"nome":"Adamantina",
"estado":"SP",
"regiao":"Regiao Sudeste",
"latitude":"-21.682",
"longitude":"-51.0737"
},
{
"id":"520015",
"nome":"Adelândia",
"estado":"GO",
"regiao":"Regiao Centro-Oeste",
"latitude":"-16.4127",
"longitude":"-50.1657"
},
{
"id":"350020",
"nome":"Adolfo",
"estado":"SP",
"regiao":"Regiao Sudeste",
"latitude":"-21.2325",
"longitude":"-49.6451"
},
{
"id":"410020",
"nome":"Adrianópolis",
"estado":"PR",
"regiao":"Regiao Sul",
"latitude":"-24.6606",
"longitude":"-48.9922"
},
{
"id":"290035",
"nome":"Adustina",
"estado":"BA",
"regiao":"Regiao Nordeste",
"latitude":"-10.5437",
"longitude":"-38.1113"
},
{
"id":"260010",
"nome":"Afogados da Ingazeira",
"estado":"PE",
"regiao":"Regiao Sul",
"latitude":"-7.74312",
"longitude":"-37.631"
},
{
"id":"240030",
"nome":"Afonso Bezerra",
"estado":"RN",
"regiao":"Regiao Nordeste",
"latitude":"-5.49229",
"longitude":"-36.5075"
},
{
"id":"320010",
"nome":"Afonso Cláudio",
"estado":"ES",
"regiao":"Regiao Sudeste",
"latitude":"-20.0778",
"longitude":"-41.1261"
},
{
"id":"210010",
"nome":"Afonso Cunha",
"estado":"MA",
"regiao":"Regiao Nordeste",
"latitude":"-4.13631",
"longitude":"-43.3275"
},
{
"id":"260020",
"nome":"Afrânio",
"estado":"PE",
"regiao":"Regiao Sul",
"latitude":"-8.51136",
"longitude":"-41.0095"
},
{
"id":"150030",
"nome":"Afuá",
"estado":"PA",
"regiao":"Regiao Norte",
"latitude":"-0.154874",
"longitude":"-50.3861"
},
{
"id":"260030",
"nome":"Agrestina",
"estado":"PE",
"regiao":"Regiao Sul",
"latitude":"-8.45966",
"longitude":"-35.9447"
},
{
"id":"220010",
"nome":"Agricolândia",
"estado":"PI",
"regiao":"Regiao Nordeste",
"latitude":"-5.79676",
"longitude":"-42.6664"
},
{
"id":"420020",
"nome":"Agrolândia",
"estado":"SC",
"regiao":"Regiao Sul",
"latitude":"-27.4087",
"longitude":"-49.822"
},
{
"id":"420030",
"nome":"Agronômica",
"estado":"SC",
"regiao":"Regiao Sul",
"latitude":"-27.2662",
"longitude":"-49.708"
},
{
"id":"150034",
"nome":"Água Azul do Norte",
"estado":"PA",
"regiao":"Regiao Norte",
"latitude":"-6.79053",
"longitude":"-50.4791"
},
{
"id":"310060",
"nome":"Água Boa",
"estado":"MG",
"regiao":"Regiao Sudeste",
"latitude":"-17.9914",
"longitude":"-42.3806"
},
{
"id":"510020",
"nome":"Água Boa",
"estado":"MT",
"regiao":"Regiao Centro-Oeste",
"latitude":"-14.051",
"longitude":"-52.1601"
},
{
"id":"220020",
"nome":"Água Branca",
"estado":"PI",
"regiao":"Regiao Nordeste",
"latitude":"-5.88856",
"longitude":"-42.637"
},
{
"id":"250010",
"nome":"Água Branca",
"estado":"PB",
"regiao":"Regiao Nordeste",
"latitude":"-7.51144",
"longitude":"-37.6357"
},
{
"id":"270010",
"nome":"Água Branca",
"estado":"AL",
"regiao":"Regiao Nordeste",
"latitude":"-9.262",
"longitude":"-37.938"
},
{
"id":"500020",
"nome":"Água Clara",
"estado":"MS",
"regiao":"Regiao Centro-Oeste",
"latitude":"-20.4452",
"longitude":"-52.879"
},
{
"id":"310070",
"nome":"Água Comprida",
"estado":"MG",
"regiao":"Regiao Sudeste",
"latitude":"-20.0576",
"longitude":"-48.1069"
},
{
"id":"420040",
"nome":"Água Doce",
"estado":"SC",
"regiao":"Regiao Sul",
"latitude":"-26.9985",
"longitude":"-51.5528"
},
{
"id":"210015",
"nome":"Água Doce do Maranhão",
"estado":"MA",
"regiao":"Regiao Nordeste",
"latitude":"-2.84048",
"longitude":"-42.1189"
},
{
"id":"320016",
"nome":"Água Doce do Norte",
"estado":"ES",
"regiao":"Regiao Sudeste",
"latitude":"-18.5482",
"longitude":"-40.9854"
},
{
"id":"290040",
"nome":"Água Fria",
"estado":"BA",
"regiao":"Regiao Nordeste",
"latitude":"-11.8618",
"longitude":"-38.7639"
},
{
"id":"520017",
"nome":"Água Fria de Goiás",
"estado":"GO",
"regiao":"Regiao Centro-Oeste",
"latitude":"-14.9778",
"longitude":"-47.7823"
},
{
"id":"520020",
"nome":"Água Limpa",
"estado":"GO",
"regiao":"Regiao Centro-Oeste",
"latitude":"-18.0771",
"longitude":"-48.7603"
},
{
"id":"240040",
"nome":"Água Nova",
"estado":"RN",
"regiao":"Regiao Nordeste",
"latitude":"-6.20351",
"longitude":"-38.2941"
},
{
"id":"260040",
"nome":"Água Preta",
"estado":"PE",
"regiao":"Regiao Sul",
"latitude":"-8.70609",
"longitude":"-35.5263"
},
{
"id":"430005",
"nome":"Água Santa",
"estado":"RS",
"regiao":"Regiao Sul",
"latitude":"-28.1672",
"longitude":"-52.031"
},
{
"id":"350030",
"nome":"Aguaí",
"estado":"SP",
"regiao":"Regiao Sudeste",
"latitude":"-22.0572",
"longitude":"-46.9735"
},
{
"id":"310080",
"nome":"Aguanil",
"estado":"MG",
"regiao":"Regiao Sudeste",
"latitude":"-20.9439",
"longitude":"-45.3915"
},
{
"id":"260050",
"nome":"Águas Belas",
"estado":"PE",
"regiao":"Regiao Sul",
"latitude":"-9.11125",
"longitude":"-37.1226"
},
{
"id":"350040",
"nome":"Águas da Prata",
"estado":"SP",
"regiao":"Regiao Sudeste",
"latitude":"-21.9319",
"longitude":"-46.7176"
},
{
"id":"420050",
"nome":"Águas de Chapecó",
"estado":"SC",
"regiao":"Regiao Sul",
"latitude":"-27.0754",
"longitude":"-52.9808"
},
{
"id":"350050",
"nome":"Águas de Lindóia",
"estado":"SP",
"regiao":"Regiao Sudeste",
"latitude":"-22.4733",
"longitude":"-46.6314"
},
{
"id":"350055",
"nome":"Águas de Santa Bárbara",
"estado":"SP",
"regiao":"Regiao Sudeste",
"latitude":"-22.8812",
"longitude":"-49.2421"
},
{
"id":"350060",
"nome":"Águas de São Pedro",
"estado":"SP",
"regiao":"Regiao Sudeste",
"latitude":"-22.5977",
"longitude":"-47.8734"
},
{
"id":"310090",
"nome":"Águas Formosas",
"estado":"MG",
"regiao":"Regiao Sudeste",
"latitude":"-17.0802",
"longitude":"-40.9384"
},
{
"id":"420055",
"nome":"Águas Frias",
"estado":"SC",
"regiao":"Regiao Sul",
"latitude":"-26.8794",
"longitude":"-52.8568"
},
{
"id":"520025",
"nome":"Águas Lindas de Goiás",
"estado":"GO",
"regiao":"Regiao Centro-Oeste",
"latitude":"-15.7617",
"longitude":"-48.2816"
},
{
"id":"420060",
"nome":"Águas Mornas",
"estado":"SC",
"regiao":"Regiao Sul",
"latitude":"-27.6963",
"longitude":"-48.8243"
},
{
"id":"310100",
"nome":"Águas Vermelhas",
"estado":"MG",
"regiao":"Regiao Sudeste",
"latitude":"-15.7431",
"longitude":"-41.4571"
},
{
"id":"430010",
"nome":"Agudo",
"estado":"RS",
"regiao":"Regiao Sul",
"latitude":"-29.6447",
"longitude":"-53.2515"
},
{
"id":"350070",
"nome":"Agudos",
"estado":"SP",
"regiao":"Regiao Sudeste",
"latitude":"-22.4694",
"longitude":"-48.9863"
},
{
"id":"410030",
"nome":"Agudos do Sul",
"estado":"PR",
"regiao":"Regiao Sul",
"latitude":"-25.9899",
"longitude":"-49.3343"
},
{
"id":"320013",
"nome":"Águia Branca",
"estado":"ES",
"regiao":"Regiao Sudeste",
"latitude":"-18.9846",
"longitude":"-40.7437"
},
{
"id":"250020",
"nome":"Aguiar",
"estado":"PB",
"regiao":"Regiao Nordeste",
"latitude":"-7.0918",
"longitude":"-38.1681"
},
{
"id":"170030",
"nome":"Aguiarnópolis",
"estado":"TO",
"regiao":"Regiao Norte",
"latitude":"-6.55409",
"longitude":"-47.4702"
},
{
"id":"310110",
"nome":"Aimorés",
"estado":"MG",
"regiao":"Regiao Sudeste",
"latitude":"-19.5007",
"longitude":"-41.0746"
},
{
"id":"290060",
"nome":"Aiquara",
"estado":"BA",
"regiao":"Regiao Nordeste",
"latitude":"-14.1269",
"longitude":"-39.8937"
},
{
"id":"230040",
"nome":"Aiuaba",
"estado":"CE",
"regiao":"Regiao Nordeste",
"latitude":"-6.57122",
"longitude":"-40.1178"
},
{
"id":"310120",
"nome":"Aiuruoca",
"estado":"MG",
"regiao":"Regiao Sudeste",
"latitude":"-21.9736",
"longitude":"-44.6042"
},
{
"id":"430020",
"nome":"Ajuricaba",
"estado":"RS",
"regiao":"Regiao Sul",
"latitude":"-28.2342",
"longitude":"-53.7757"
},
{
"id":"310130",
"nome":"Alagoa",
"estado":"MG",
"regiao":"Regiao Sudeste",
"latitude":"-22.171",
"longitude":"-44.6413"
},
{
"id":"250030",
"nome":"Alagoa Grande",
"estado":"PB",
"regiao":"Regiao Nordeste",
"latitude":"-7.03943",
"longitude":"-35.6206"
},
{
"id":"250040",
"nome":"Alagoa Nova",
"estado":"PB",
"regiao":"Regiao Nordeste",
"latitude":"-7.05377",
"longitude":"-35.7591"
},
{
"id":"250050",
"nome":"Alagoinha",
"estado":"PB",
"regiao":"Regiao Nordeste",
"latitude":"-6.94657",
"longitude":"-35.5332"
},
{
"id":"260060",
"nome":"Alagoinha",
"estado":"PE",
"regiao":"Regiao Sul",
"latitude":"-8.4665",
"longitude":"-36.7788"
},
{
"id":"220025",
"nome":"Alagoinha do Piauí",
"estado":"PI",
"regiao":"Regiao Nordeste",
"latitude":"-7.00039",
"longitude":"-40.9282"
},
{
"id":"290070",
"nome":"Alagoinhas",
"estado":"BA",
"regiao":"Regiao Nordeste",
"latitude":"-12.1335",
"longitude":"-38.4208"
},
{
"id":"350075",
"nome":"Alambari",
"estado":"SP",
"regiao":"Regiao Sudeste",
"latitude":"-23.5503",
"longitude":"-47.898"
},
{
"id":"310140",
"nome":"Albertina",
"estado":"MG",
"regiao":"Regiao Sudeste",
"latitude":"-22.2018",
"longitude":"-46.6139"
},
{
"id":"210020",
"nome":"Alcântara",
"estado":"MA",
"regiao":"Regiao Nordeste",
"latitude":"-2.39574",
"longitude":"-44.4062"
},
{
"id":"230050",
"nome":"Alcântaras",
"estado":"CE",
"regiao":"Regiao Nordeste",
"latitude":"-3.58537",
"longitude":"-40.5479"
},
{
"id":"250053",
"nome":"Alcantil",
"estado":"PB",
"regiao":"Regiao Nordeste",
"latitude":"-7.73668",
"longitude":"-36.0511"
},
{
"id":"500025",
"nome":"Alcinópolis",
"estado":"MS",
"regiao":"Regiao Centro-Oeste",
"latitude":"-18.3255",
"longitude":"-53.7042"
},
{
"id":"290080",
"nome":"Alcobaça",
"estado":"BA",
"regiao":"Regiao Nordeste",
"latitude":"-17.5195",
"longitude":"-39.2036"
},
{
"id":"210030",
"nome":"Aldeias Altas",
"estado":"MA",
"regiao":"Regiao Nordeste",
"latitude":"-4.62621",
"longitude":"-43.4689"
},
{
"id":"430030",
"nome":"Alecrim",
"estado":"RS",
"regiao":"Regiao Sul",
"latitude":"-27.6579",
"longitude":"-54.7649"
},
{
"id":"320020",
"nome":"Alegre",
"estado":"ES",
"regiao":"Regiao Sudeste",
"latitude":"-20.758",
"longitude":"-41.5382"
},
{
"id":"430040",
"nome":"Alegrete",
"estado":"RS",
"regiao":"Regiao Sul",
"latitude":"-29.7902",
"longitude":"-55.7949"
},
{
"id":"220027",
"nome":"Alegrete do Piauí",
"estado":"PI",
"regiao":"Regiao Nordeste",
"latitude":"-7.24196",
"longitude":"-40.8566"
},
{
"id":"430045",
"nome":"Alegria",
"estado":"RS",
"regiao":"Regiao Sul",
"latitude":"-27.8345",
"longitude":"-54.0557"
},
{
"id":"310150",
"nome":"Além Paraíba",
"estado":"MG",
"regiao":"Regiao Sudeste",
"latitude":"-21.8797",
"longitude":"-42.7176"
},
{
"id":"150040",
"nome":"Alenquer",
"estado":"PA",
"regiao":"Regiao Norte",
"latitude":"-1.94623",
"longitude":"-54.7384"
},
{
"id":"240050",
"nome":"Alexandria",
"estado":"RN",
"regiao":"Regiao Nordeste",
"latitude":"-6.40533",
"longitude":"-38.0142"
},
{
"id":"520030",
"nome":"Alexânia",
"estado":"GO",
"regiao":"Regiao Centro-Oeste",
"latitude":"-16.0834",
"longitude":"-48.5076"
},
{
"id":"310160",
"nome":"Alfenas",
"estado":"MG",
"regiao":"Regiao Sudeste",
"latitude":"-21.4256",
"longitude":"-45.9477"
},
{
"id":"320030",
"nome":"Alfredo Chaves",
"estado":"ES",
"regiao":"Regiao Sudeste",
"latitude":"-20.6396",
"longitude":"-40.7543"
},
{
"id":"350080",
"nome":"Alfredo Marcondes",
"estado":"SP",
"regiao":"Regiao Sudeste",
"latitude":"-21.9527",
"longitude":"-51.414"
},
{
"id":"310163",
"nome":"Alfredo Vasconcelos",
"estado":"MG",
"regiao":"Regiao Sudeste",
"latitude":"-21.1535",
"longitude":"-43.7718"
},
{
"id":"420070",
"nome":"Alfredo Wagner",
"estado":"SC",
"regiao":"Regiao Sul",
"latitude":"-27.7001",
"longitude":"-49.3273"
},
{
"id":"250057",
"nome":"Algodão de Jandaíra",
"estado":"PB",
"regiao":"Regiao Nordeste",
"latitude":"-6.89292",
"longitude":"-36.0129"
},
{
"id":"250060",
"nome":"Alhandra",
"estado":"PB",
"regiao":"Regiao Nordeste",
"latitude":"-7.42977",
"longitude":"-34.9057"
},
{
"id":"260070",
"nome":"Aliança",
"estado":"PE",
"regiao":"Regiao Sul",
"latitude":"-7.60398",
"longitude":"-35.2227"
},
{
"id":"170035",
"nome":"Aliança do Tocantins",
"estado":"TO",
"regiao":"Regiao Norte",
"latitude":"-11.3056",
"longitude":"-48.9361"
},
{
"id":"290090",
"nome":"Almadina",
"estado":"BA",
"regiao":"Regiao Nordeste",
"latitude":"-14.7089",
"longitude":"-39.6415"
},
{
"id":"170040",
"nome":"Almas",
"estado":"TO",
"regiao":"Regiao Norte",
"latitude":"-11.5706",
"longitude":"-47.1792"
},
{
"id":"150050",
"nome":"Almeirim",
"estado":"PA",
"regiao":"Regiao Norte",
"latitude":"-1.52904",
"longitude":"-52.5788"
},
{
"id":"310170",
"nome":"Almenara",
"estado":"MG",
"regiao":"Regiao Sudeste",
"latitude":"-16.1785",
"longitude":"-40.6942"
},
{
"id":"240060",
"nome":"Almino Afonso",
"estado":"RN",
"regiao":"Regiao Nordeste",
"latitude":"-6.1475",
"longitude":"-37.7636"
},
{
"id":"410040",
"nome":"Almirante Tamandaré",
"estado":"PR",
"regiao":"Regiao Sul",
"latitude":"-25.3188",
"longitude":"-49.3037"
},
{
"id":"430047",
"nome":"Almirante Tamandaré do Sul",
"estado":"RS",
"regiao":"Regiao Sul",
"latitude":"-28.1149",
"longitude":"-52.9142"
},
{
"id":"520050",
"nome":"Aloândia",
"estado":"GO",
"regiao":"Regiao Centro-Oeste",
"latitude":"-17.7292",
"longitude":"-49.4769"
},
{
"id":"310180",
"nome":"Alpercata",
"estado":"MG",
"regiao":"Regiao Sudeste",
"latitude":"-18.974",
"longitude":"-41.97"
},
{
"id":"430050",
"nome":"Alpestre",
"estado":"RS",
"regiao":"Regiao Sul",
"latitude":"-27.2502",
"longitude":"-53.0341"
},
{
"id":"310190",
"nome":"Alpinópolis",
"estado":"MG",
"regiao":"Regiao Sudeste",
"latitude":"-20.8631",
"longitude":"-46.3878"
},
{
"id":"510025",
"nome":"Alta Floresta",
"estado":"MT",
"regiao":"Regiao Centro-Oeste",
"latitude":"-9.86674",
"longitude":"-56.0867"
},
{
"id":"110001",
"nome":"Alta Floresta D'oeste",
"estado":"RO",
"regiao":"Regiao Norte",
"latitude":"-11.9283",
"longitude":"-61.9953"
},
{
"id":"350090",
"nome":"Altair",
"estado":"SP",
"regiao":"Regiao Sudeste",
"latitude":"-20.5242",
"longitude":"-49.0571"
},
{
"id":"150060",
"nome":"Altamira",
"estado":"PA",
"regiao":"Regiao Norte",
"latitude":"-3.20407",
"longitude":"-52.21"
},
{
"id":"210040",
"nome":"Altamira do Maranhão",
"estado":"MA",
"regiao":"Regiao Nordeste",
"latitude":"-4.16598",
"longitude":"-45.4706"
},
{
"id":"410045",
"nome":"Altamira do Paraná",
"estado":"PR",
"regiao":"Regiao Sul",
"latitude":"-24.7983",
"longitude":"-52.7128"
},
{
"id":"230060",
"nome":"Altaneira",
"estado":"CE",
"regiao":"Regiao Nordeste",
"latitude":"-6.99837",
"longitude":"-39.7356"
},
{
"id":"310200",
"nome":"Alterosa",
"estado":"MG",
"regiao":"Regiao Sudeste",
"latitude":"-21.2488",
"longitude":"-46.1387"
},
{
"id":"260080",
"nome":"Altinho",
"estado":"PE",
"regiao":"Regiao Sul",
"latitude":"-8.48482",
"longitude":"-36.0644"
},
{
"id":"350100",
"nome":"Altinópolis",
"estado":"SP",
"regiao":"Regiao Sudeste",
"latitude":"-21.0214",
"longitude":"-47.3712"
},
{
"id":"140005",
"nome":"Alto Alegre",
"estado":"RR",
"regiao":"Regiao Norte",
"latitude":"2.98858",
"longitude":"-61.3072"
},
{
"id":"350110",
"nome":"Alto Alegre",
"estado":"SP",
"regiao":"Regiao Sudeste",
"latitude":"-21.5811",
"longitude":"-50.168"
},
{
"id":"430055",
"nome":"Alto Alegre",
"estado":"RS",
"regiao":"Regiao Sul",
"latitude":"-28.7769",
"longitude":"-52.9893"
},
{
"id":"210043",
"nome":"Alto Alegre do Maranhão",
"estado":"MA",
"regiao":"Regiao Nordeste",
"latitude":"-4.213",
"longitude":"-44.446"
},
{
"id":"210047",
"nome":"Alto Alegre do Pindaré",
"estado":"MA",
"regiao":"Regiao Nordeste",
"latitude":"-3.66689",
"longitude":"-45.8421"
},
{
"id":"110037",
"nome":"Alto Alegre Dos Parecis",
"estado":"RO",
"regiao":"Regiao Norte",
"latitude":"-12.132",
"longitude":"-61.835"
},
{
"id":"510030",
"nome":"Alto Araguaia",
"estado":"MT",
"regiao":"Regiao Centro-Oeste",
"latitude":"-17.3153",
"longitude":"-53.2181"
},
{
"id":"420075",
"nome":"Alto Bela Vista",
"estado":"SC",
"regiao":"Regiao Sul",
"latitude":"-27.4333",
"longitude":"-51.9044"
},
{
"id":"510035",
"nome":"Alto Boa Vista",
"estado":"MT",
"regiao":"Regiao Centro-Oeste",
"latitude":"-11.6732",
"longitude":"-51.3883"
},
{
"id":"310205",
"nome":"Alto Caparaó",
"estado":"MG",
"regiao":"Regiao Sudeste",
"latitude":"-20.448129",
"longitude":"-41.873185"
},
{
"id":"240070",
"nome":"Alto do Rodrigues",
"estado":"RN",
"regiao":"Regiao Nordeste",
"latitude":"-5.28186",
"longitude":"-36.75"
},
{
"id":"430057",
"nome":"Alto Feliz",
"estado":"RS",
"regiao":"Regiao Sul",
"latitude":"-29.3919",
"longitude":"-51.3123"
},
{
"id":"510040",
"nome":"Alto Garças",
"estado":"MT",
"regiao":"Regiao Centro-Oeste",
"latitude":"-16.9462",
"longitude":"-53.5272"
},
{
"id":"520055",
"nome":"Alto Horizonte",
"estado":"GO",
"regiao":"Regiao Centro-Oeste",
"latitude":"-14.1978",
"longitude":"-49.3378"
},
{
"id":"315350",
"nome":"Alto Jequitibá",
"estado":"MG",
"regiao":"Regiao Sudeste",
"latitude":"-20.4208",
"longitude":"-41.967457"
},
{
"id":"220030",
"nome":"Alto Longá",
"estado":"PI",
"regiao":"Regiao Nordeste",
"latitude":"-5.25634",
"longitude":"-42.2096"
},
{
"id":"510050",
"nome":"Alto Paraguai",
"estado":"MT",
"regiao":"Regiao Centro-Oeste",
"latitude":"-14.5137",
"longitude":"-56.4776"
},
{
"id":"110040",
"nome":"Alto Paraíso",
"estado":"RO",
"regiao":"Regiao Norte",
"latitude":"-9.71429",
"longitude":"-63.3188"
},
{
"id":"520060",
"nome":"Alto Paraíso de Goiás",
"estado":"GO",
"regiao":"Regiao Centro-Oeste",
"latitude":"-14.1305",
"longitude":"-47.51"
},
{
"id":"410060",
"nome":"Alto Paraná",
"estado":"PR",
"regiao":"Regiao Sul",
"latitude":"-23.1312",
"longitude":"-52.3189"
},
{
"id":"210050",
"nome":"Alto Parnaíba",
"estado":"MA",
"regiao":"Regiao Nordeste",
"latitude":"-9.10273",
"longitude":"-45.9303"
},
{
"id":"410070",
"nome":"Alto Piquiri",
"estado":"PR",
"regiao":"Regiao Sul",
"latitude":"-24.0224",
"longitude":"-53.44"
},
{
"id":"310210",
"nome":"Alto Rio Doce",
"estado":"MG",
"regiao":"Regiao Sudeste",
"latitude":"-21.0281",
"longitude":"-43.4067"
},
{
"id":"320035",
"nome":"Alto Rio Novo",
"estado":"ES",
"regiao":"Regiao Sudeste",
"latitude":"-19.0618",
"longitude":"-41.0209"
},
{
"id":"230070",
"nome":"Alto Santo",
"estado":"CE",
"regiao":"Regiao Nordeste",
"latitude":"-5.50894",
"longitude":"-38.2743"
},
{
"id":"510060",
"nome":"Alto Taquari",
"estado":"MT",
"regiao":"Regiao Centro-Oeste",
"latitude":"-17.8241",
"longitude":"-53.2792"
},
{
"id":"410050",
"nome":"Altônia",
"estado":"PR",
"regiao":"Regiao Sul",
"latitude":"-23.8759",
"longitude":"-53.8958"
},
{
"id":"220040",
"nome":"Altos",
"estado":"PI",
"regiao":"Regiao Nordeste",
"latitude":"-5.03888",
"longitude":"-42.4612"
},
{
"id":"350115",
"nome":"Alumínio",
"estado":"SP",
"regiao":"Regiao Sudeste",
"latitude":"-23.5306",
"longitude":"-47.2546"
},
{
"id":"130002",
"nome":"Alvarães",
"estado":"AM",
"regiao":"Regiao Norte",
"latitude":"-3.22727",
"longitude":"-64.8007"
},
{
"id":"310220",
"nome":"Alvarenga",
"estado":"MG",
"regiao":"Regiao Sudeste",
"latitude":"-19.4174",
"longitude":"-41.7317"
},
{
"id":"350120",
"nome":"Álvares Florence",
"estado":"SP",
"regiao":"Regiao Sudeste",
"latitude":"-20.3203",
"longitude":"-49.9141"
},
{
"id":"350130",
"nome":"Álvares Machado",
"estado":"SP",
"regiao":"Regiao Sudeste",
"latitude":"-22.0764",
"longitude":"-51.4722"
},
{
"id":"350140",
"nome":"Álvaro de Carvalho",
"estado":"SP",
"regiao":"Regiao Sudeste",
"latitude":"-22.0841",
"longitude":"-49.719"
},
{
"id":"350150",
"nome":"Alvinlândia",
"estado":"SP",
"regiao":"Regiao Sudeste",
"latitude":"-22.4435",
"longitude":"-49.7623"
},
{
"id":"310230",
"nome":"Alvinópolis",
"estado":"MG",
"regiao":"Regiao Sudeste",
"latitude":"-20.1098",
"longitude":"-43.0535"
},
{
"id":"170070",
"nome":"Alvorada",
"estado":"TO",
"regiao":"Regiao Norte",
"latitude":"-12.4785",
"longitude":"-49.1249"
},
{
"id":"430060",
"nome":"Alvorada",
"estado":"RS",
"regiao":"Regiao Sul",
"latitude":"-29.9914",
"longitude":"-51.0809"
},
{
"id":"110034",
"nome":"Alvorada D'oeste",
"estado":"RO",
"regiao":"Regiao Norte",
"latitude":"-11.3463",
"longitude":"-62.2847"
},
{
"id":"310240",
"nome":"Alvorada de Minas",
"estado":"MG",
"regiao":"Regiao Sudeste",
"latitude":"-18.7334",
"longitude":"-43.3638"
},
{
"id":"220045",
"nome":"Alvorada do Gurguéia",
"estado":"PI",
"regiao":"Regiao Nordeste",
"latitude":"-8.42418",
"longitude":"-43.777"
},
{
"id":"520080",
"nome":"Alvorada do Norte",
"estado":"GO",
"regiao":"Regiao Centro-Oeste",
"latitude":"-14.4797",
"longitude":"-46.491"
},
{
"id":"410080",
"nome":"Alvorada do Sul",
"estado":"PR",
"regiao":"Regiao Sul",
"latitude":"-22.7813",
"longitude":"-51.2297"
},
{
"id":"140002",
"nome":"Amajari",
"estado":"RR",
"regiao":"Regiao Norte",
"latitude":"3.64571",
"longitude":"-61.3692"
},
{
"id":"500060",
"nome":"Amambaí",
"estado":"MS",
"regiao":"Regiao Centro-Oeste",
"latitude":"-23.1058",
"longitude":"-55.2253"
},
{
"id":"160010",
"nome":"Amapá",
"estado":"AP",
"regiao":"Regiao Norte",
"latitude":"2.05267",
"longitude":"-50.7957"
},
{
"id":"210055",
"nome":"Amapá do Maranhão",
"estado":"MA",
"regiao":"Regiao Nordeste",
"latitude":"-1.67524",
"longitude":"-46.0024"
},
{
"id":"410090",
"nome":"Amaporã",
"estado":"PR",
"regiao":"Regiao Sul",
"latitude":"-23.0943",
"longitude":"-52.7866"
},
{
"id":"260090",
"nome":"Amaraji",
"estado":"PE",
"regiao":"Regiao Sul",
"latitude":"-8.37691",
"longitude":"-35.4501"
},
{
"id":"430063",
"nome":"Amaral Ferrador",
"estado":"RS",
"regiao":"Regiao Sul",
"latitude":"-30.8756",
"longitude":"-52.2509"
},
{
"id":"520082",
"nome":"Amaralina",
"estado":"GO",
"regiao":"Regiao Centro-Oeste",
"latitude":"-13.9236",
"longitude":"-49.2962"
},
{
"id":"220050",
"nome":"Amarante",
"estado":"PI",
"regiao":"Regiao Nordeste",
"latitude":"-6.24304",
"longitude":"-42.8433"
},
{
"id":"210060",
"nome":"Amarante do Maranhão",
"estado":"MA",
"regiao":"Regiao Nordeste",
"latitude":"-5.56913",
"longitude":"-46.7473"
},
{
"id":"290100",
"nome":"Amargosa",
"estado":"BA",
"regiao":"Regiao Nordeste",
"latitude":"-13.0215",
"longitude":"-39.602"
},
{
"id":"130006",
"nome":"Amaturá",
"estado":"AM",
"regiao":"Regiao Norte",
"latitude":"-3.37455",
"longitude":"-68.2005"
},
{
"id":"290110",
"nome":"Amélia Rodrigues",
"estado":"BA",
"regiao":"Regiao Nordeste",
"latitude":"-12.3914",
"longitude":"-38.7563"
},
{
"id":"350160",
"nome":"Americana",
"estado":"SP",
"regiao":"Regiao Sudeste",
"latitude":"-22.7374",
"longitude":"-47.3331"
},
{
"id":"520085",
"nome":"Americano do Brasil",
"estado":"GO",
"regiao":"Regiao Centro-Oeste",
"latitude":"-16.2514",
"longitude":"-49.9831"
},
{
"id":"350170",
"nome":"Américo Brasiliense",
"estado":"SP",
"regiao":"Regiao Sudeste",
"latitude":"-21.7288",
"longitude":"-48.1147"
},
{
"id":"350180",
"nome":"Américo de Campos",
"estado":"SP",
"regiao":"Regiao Sudeste",
"latitude":"-20.2985",
"longitude":"-49.7359"
},
{
"id":"430064",
"nome":"Ametista do Sul",
"estado":"RS",
"regiao":"Regiao Sul",
"latitude":"-27.3607",
"longitude":"-53.183"
},
{
"id":"230075",
"nome":"Amontada",
"estado":"CE",
"regiao":"Regiao Nordeste",
"latitude":"-3.36017",
"longitude":"-39.8288"
},
{
"id":"520090",
"nome":"Amorinópolis",
"estado":"GO",
"regiao":"Regiao Centro-Oeste",
"latitude":"-16.6151",
"longitude":"-51.0919"
},
{
"id":"250073",
"nome":"Amparo",
"estado":"PB",
"regiao":"Regiao Nordeste",
"latitude":"-7.55502",
"longitude":"-37.0628"
},
{
"id":"350190",
"nome":"Amparo",
"estado":"SP",
"regiao":"Regiao Sudeste",
"latitude":"-22.7088",
"longitude":"-46.772"
},
{
"id":"280010",
"nome":"Amparo de São Francisco",
"estado":"SE",
"regiao":"Regiao Nordeste",
"latitude":"-10.1348",
"longitude":"-36.935"
},
{
"id":"310250",
"nome":"Amparo do Serra",
"estado":"MG",
"regiao":"Regiao Sudeste",
"latitude":"-20.5051",
"longitude":"-42.8009"
},
{
"id":"410100",
"nome":"Ampére",
"estado":"PR",
"regiao":"Regiao Sul",
"latitude":"-25.9168",
"longitude":"-53.4686"
},
{
"id":"270020",
"nome":"Anadia",
"estado":"AL",
"regiao":"Regiao Nordeste",
"latitude":"-9.68489",
"longitude":"-36.3078"
},
{
"id":"290120",
"nome":"Anagé",
"estado":"BA",
"regiao":"Regiao Nordeste",
"latitude":"-14.6151",
"longitude":"-41.1356"
},
{
"id":"410105",
"nome":"Anahy",
"estado":"PR",
"regiao":"Regiao Sul",
"latitude":"-24.6449",
"longitude":"-53.1332"
},
{
"id":"210070",
"nome":"Anajatuba",
"estado":"MA",
"regiao":"Regiao Nordeste",
"latitude":"-3.26269",
"longitude":"-44.6126"
},
{
"id":"350200",
"nome":"Analândia",
"estado":"SP",
"regiao":"Regiao Sudeste",
"latitude":"-22.1289",
"longitude":"-47.6619"
},
{
"id":"130008",
"nome":"Anamã",
"estado":"AM",
"regiao":"Regiao Norte",
"latitude":"-3.56697",
"longitude":"-61.3963"
},
{
"id":"170100",
"nome":"Ananás",
"estado":"TO",
"regiao":"Regiao Norte",
"latitude":"-6.36437",
"longitude":"-48.0735"
},
{
"id":"520110",
"nome":"Anápolis",
"estado":"GO",
"regiao":"Regiao Centro-Oeste",
"latitude":"-16.3281",
"longitude":"-48.953"
},
{
"id":"150085",
"nome":"Anapu",
"estado":"PA",
"regiao":"Regiao Norte",
"latitude":"-3.46985",
"longitude":"-51.2003"
},
{
"id":"210080",
"nome":"Anapurus",
"estado":"MA",
"regiao":"Regiao Nordeste",
"latitude":"-3.67577",
"longitude":"-43.1014"
},
{
"id":"500070",
"nome":"Anastácio",
"estado":"MS",
"regiao":"Regiao Centro-Oeste",
"latitude":"-20.4823",
"longitude":"-55.8104"
},
{
"id":"500080",
"nome":"Anaurilândia",
"estado":"MS",
"regiao":"Regiao Centro-Oeste",
"latitude":"-22.1852",
"longitude":"-52.7191"
},
{
"id":"320040",
"nome":"Anchieta",
"estado":"ES",
"regiao":"Regiao Sudeste",
"latitude":"-20.7955",
"longitude":"-40.6425"
},
{
"id":"420080",
"nome":"Anchieta",
"estado":"SC",
"regiao":"Regiao Sul",
"latitude":"-26.5382",
"longitude":"-53.3319"
},
{
"id":"290130",
"nome":"Andaraí",
"estado":"BA",
"regiao":"Regiao Nordeste",
"latitude":"-12.8049",
"longitude":"-41.3297"
},
{
"id":"410110",
"nome":"Andirá",
"estado":"PR",
"regiao":"Regiao Sul",
"latitude":"-23.0533",
"longitude":"-50.2304"
},
{
"id":"290135",
"nome":"Andorinha",
"estado":"BA",
"regiao":"Regiao Nordeste",
"latitude":"-10.3482",
"longitude":"-39.8391"
},
{
"id":"310260",
"nome":"Andradas",
"estado":"MG",
"regiao":"Regiao Sudeste",
"latitude":"-22.0695",
"longitude":"-46.5724"
},
{
"id":"350210",
"nome":"Andradina",
"estado":"SP",
"regiao":"Regiao Sudeste",
"latitude":"-20.8948",
"longitude":"-51.3786"
},
{
"id":"430066",
"nome":"André da Rocha",
"estado":"RS",
"regiao":"Regiao Sul",
"latitude":"-28.6283",
"longitude":"-51.5797"
},
{
"id":"310280",
"nome":"Andrelândia",
"estado":"MG",
"regiao":"Regiao Sudeste",
"latitude":"-21.7411",
"longitude":"-44.3117"
},
{
"id":"350220",
"nome":"Angatuba",
"estado":"SP",
"regiao":"Regiao Sudeste",
"latitude":"-23.4917",
"longitude":"-48.4139"
},
{
"id":"310285",
"nome":"Angelândia",
"estado":"MG",
"regiao":"Regiao Sudeste",
"latitude":"-17.7279",
"longitude":"-42.2641"
},
{
"id":"500085",
"nome":"Angélica",
"estado":"MS",
"regiao":"Regiao Centro-Oeste",
"latitude":"-22.1527",
"longitude":"-53.7708"
},
{
"id":"260100",
"nome":"Angelim",
"estado":"PE",
"regiao":"Regiao Sul",
"latitude":"-8.88429",
"longitude":"-36.2902"
},
{
"id":"420090",
"nome":"Angelina",
"estado":"SC",
"regiao":"Regiao Sul",
"latitude":"-27.5704",
"longitude":"-48.9879"
},
{
"id":"290140",
"nome":"Angical",
"estado":"BA",
"regiao":"Regiao Nordeste",
"latitude":"-12.0063",
"longitude":"-44.7003"
},
{
"id":"220060",
"nome":"Angical do Piauí",
"estado":"PI",
"regiao":"Regiao Nordeste",
"latitude":"-6.08786",
"longitude":"-42.74"
},
{
"id":"170105",
"nome":"Angico",
"estado":"TO",
"regiao":"Regiao Norte",
"latitude":"-6.39179",
"longitude":"-47.8611"
},
{
"id":"240080",
"nome":"Angicos",
"estado":"RN",
"regiao":"Regiao Nordeste",
"latitude":"-5.65792",
"longitude":"-36.6094"
},
{
"id":"330010",
"nome":"Angra Dos Reis",
"estado":"RJ",
"regiao":"Regiao Sudeste",
"latitude":"-23.0011",
"longitude":"-44.3196"
},
{
"id":"290150",
"nome":"Anguera",
"estado":"BA",
"regiao":"Regiao Nordeste",
"latitude":"-12.1462",
"longitude":"-39.2462"
},
{
"id":"410115",
"nome":"Ângulo",
"estado":"PR",
"regiao":"Regiao Sul",
"latitude":"-23.1946",
"longitude":"-51.9154"
},
{
"id":"520120",
"nome":"Anhanguera",
"estado":"GO",
"regiao":"Regiao Centro-Oeste",
"latitude":"-18.3339",
"longitude":"-48.2204"
},
{
"id":"350230",
"nome":"Anhembi",
"estado":"SP",
"regiao":"Regiao Sudeste",
"latitude":"-22.793",
"longitude":"-48.1336"
},
{
"id":"350240",
"nome":"Anhumas",
"estado":"SP",
"regiao":"Regiao Sudeste",
"latitude":"-22.2934",
"longitude":"-51.3895"
},
{
"id":"520130",
"nome":"Anicuns",
"estado":"GO",
"regiao":"Regiao Centro-Oeste",
"latitude":"-16.4642",
"longitude":"-49.9617"
},
{
"id":"220070",
"nome":"Anísio de Abreu",
"estado":"PI",
"regiao":"Regiao Nordeste",
"latitude":"-9.18564",
"longitude":"-43.0494"
},
{
"id":"420100",
"nome":"Anita Garibaldi",
"estado":"SC",
"regiao":"Regiao Sul",
"latitude":"-27.6897",
"longitude":"-51.1271"
},
{
"id":"420110",
"nome":"Anitápolis",
"estado":"SC",
"regiao":"Regiao Sul",
"latitude":"-27.9012",
"longitude":"-49.1316"
},
{
"id":"130010",
"nome":"Anori",
"estado":"AM",
"regiao":"Regiao Norte",
"latitude":"-3.74603",
"longitude":"-61.6575"
},
{
"id":"430070",
"nome":"Anta Gorda",
"estado":"RS",
"regiao":"Regiao Sul",
"latitude":"-28.9698",
"longitude":"-52.0102"
},
{
"id":"290160",
"nome":"Antas",
"estado":"BA",
"regiao":"Regiao Nordeste",
"latitude":"-10.3856",
"longitude":"-38.3401"
},
{
"id":"410120",
"nome":"Antonina",
"estado":"PR",
"regiao":"Regiao Sul",
"latitude":"-25.4386",
"longitude":"-48.7191"
},
{
"id":"230080",
"nome":"Antonina do Norte",
"estado":"CE",
"regiao":"Regiao Nordeste",
"latitude":"-6.76919",
"longitude":"-39.987"
},
{
"id":"220080",
"nome":"Antônio Almeida",
"estado":"PI",
"regiao":"Regiao Nordeste",
"latitude":"-7.21276",
"longitude":"-44.1889"
},
{
"id":"290170",
"nome":"Antônio Cardoso",
"estado":"BA",
"regiao":"Regiao Nordeste",
"latitude":"-12.4335",
"longitude":"-39.1176"
},
{
"id":"310290",
"nome":"Antônio Carlos",
"estado":"MG",
"regiao":"Regiao Sudeste",
"latitude":"-21.321",
"longitude":"-43.7451"
},
{
"id":"420120",
"nome":"Antônio Carlos",
"estado":"SC",
"regiao":"Regiao Sul",
"latitude":"-27.5191",
"longitude":"-48.766"
},
{
"id":"310300",
"nome":"Antônio Dias",
"estado":"MG",
"regiao":"Regiao Sudeste",
"latitude":"-19.6491",
"longitude":"-42.8732"
},
{
"id":"290180",
"nome":"Antônio Gonçalves",
"estado":"BA",
"regiao":"Regiao Nordeste",
"latitude":"-10.5767",
"longitude":"-40.2785"
},
{
"id":"500090",
"nome":"Antônio João",
"estado":"MS",
"regiao":"Regiao Centro-Oeste",
"latitude":"-22.1927",
"longitude":"-55.9517"
},
{
"id":"240090",
"nome":"Antônio Martins",
"estado":"RN",
"regiao":"Regiao Nordeste",
"latitude":"-6.21367",
"longitude":"-37.8834"
},
{
"id":"410130",
"nome":"Antônio Olinto",
"estado":"PR",
"regiao":"Regiao Sul",
"latitude":"-25.9804",
"longitude":"-50.1972"
},
{
"id":"430080",
"nome":"Antônio Prado",
"estado":"RS",
"regiao":"Regiao Sul",
"latitude":"-28.8565",
"longitude":"-51.2883"
},
{
"id":"310310",
"nome":"Antônio Prado de Minas",
"estado":"MG",
"regiao":"Regiao Sudeste",
"latitude":"-21.0192",
"longitude":"-42.1109"
},
{
"id":"250077",
"nome":"Aparecida",
"estado":"PB",
"regiao":"Regiao Nordeste",
"latitude":"-6.78466",
"longitude":"-38.0803"
},
{
"id":"350250",
"nome":"Aparecida",
"estado":"SP",
"regiao":"Regiao Sudeste",
"latitude":"-22.8495",
"longitude":"-45.2325"
},
{
"id":"350260",
"nome":"Aparecida D'oeste",
"estado":"SP",
"regiao":"Regiao Sudeste",
"latitude":"-20.4487",
"longitude":"-50.8835"
},
{
"id":"520140",
"nome":"Aparecida de Goiânia",
"estado":"GO",
"regiao":"Regiao Centro-Oeste",
"latitude":"-16.8198",
"longitude":"-49.2469"
},
{
"id":"520145",
"nome":"Aparecida do Rio Doce",
"estado":"GO",
"regiao":"Regiao Centro-Oeste",
"latitude":"-18.2941",
"longitude":"-51.1516"
},
{
"id":"170110",
"nome":"Aparecida do Rio Negro",
"estado":"TO",
"regiao":"Regiao Norte",
"latitude":"-9.94139",
"longitude":"-47.9638"
},
{
"id":"500100",
"nome":"Aparecida do Taboado",
"estado":"MS",
"regiao":"Regiao Centro-Oeste",
"latitude":"-20.0873",
"longitude":"-51.0961"
},
{
"id":"330015",
"nome":"Aperibé",
"estado":"RJ",
"regiao":"Regiao Sudeste",
"latitude":"-21.6252",
"longitude":"-42.1017"
},
{
"id":"320050",
"nome":"Apiacá",
"estado":"ES",
"regiao":"Regiao Sudeste",
"latitude":"-21.1523",
"longitude":"-41.5693"
},
{
"id":"510080",
"nome":"Apiacás",
"estado":"MT",
"regiao":"Regiao Centro-Oeste",
"latitude":"-9.53981",
"longitude":"-57.4587"
},
{
"id":"350270",
"nome":"Apiaí",
"estado":"SP",
"regiao":"Regiao Sudeste",
"latitude":"-24.5108",
"longitude":"-48.8443"
},
{
"id":"210083",
"nome":"Apicum-açu",
"estado":"MA",
"regiao":"Regiao Nordeste",
"latitude":"-1.45862",
"longitude":"-45.0864"
},
{
"id":"420125",
"nome":"Apiúna",
"estado":"SC",
"regiao":"Regiao Sul",
"latitude":"-27.0375",
"longitude":"-49.3885"
},
{
"id":"240100",
"nome":"Apodi",
"estado":"RN",
"regiao":"Regiao Nordeste",
"latitude":"-5.65349",
"longitude":"-37.7946"
},
{
"id":"290190",
"nome":"Aporá",
"estado":"BA",
"regiao":"Regiao Nordeste",
"latitude":"-11.6577",
"longitude":"-38.0814"
},
{
"id":"520150",
"nome":"Aporé",
"estado":"GO",
"regiao":"Regiao Centro-Oeste",
"latitude":"-18.9607",
"longitude":"-51.9232"
},
{
"id":"290195",
"nome":"Apuarema",
"estado":"BA",
"regiao":"Regiao Nordeste",
"latitude":"-13.8542",
"longitude":"-39.7501"
},
{
"id":"410140",
"nome":"Apucarana",
"estado":"PR",
"regiao":"Regiao Sul",
"latitude":"-23.55",
"longitude":"-51.4635"
},
{
"id":"130014",
"nome":"Apuí",
"estado":"AM",
"regiao":"Regiao Norte",
"latitude":"-7.19409",
"longitude":"-59.896"
},
{
"id":"230090",
"nome":"Apuiarés",
"estado":"CE",
"regiao":"Regiao Nordeste",
"latitude":"-3.94506",
"longitude":"-39.4359"
},
{
"id":"280020",
"nome":"Aquidabã",
"estado":"SE",
"regiao":"Regiao Nordeste",
"latitude":"-10.278",
"longitude":"-37.0148"
},
{
"id":"500110",
"nome":"Aquidauana",
"estado":"MS",
"regiao":"Regiao Centro-Oeste",
"latitude":"-20.4666",
"longitude":"-55.7868"
},
{
"id":"230100",
"nome":"Aquiraz",
"estado":"CE",
"regiao":"Regiao Nordeste",
"latitude":"-3.89929",
"longitude":"-38.3896"
},
{
"id":"420127",
"nome":"Arabutã",
"estado":"SC",
"regiao":"Regiao Sul",
"latitude":"-27.1587",
"longitude":"-52.1423"
},
{
"id":"250080",
"nome":"Araçagi",
"estado":"PB",
"regiao":"Regiao Nordeste",
"latitude":"-6.84374",
"longitude":"-35.3737"
},
{
"id":"310320",
"nome":"Araçaí",
"estado":"MG",
"regiao":"Regiao Sudeste",
"latitude":"-19.1955",
"longitude":"-44.2493"
},
{
"id":"280030",
"nome":"Aracaju",
"estado":"SE",
"regiao":"Regiao Nordeste",
"latitude":"-10.9091",
"longitude":"-37.0677"
},
{
"id":"350275",
"nome":"Araçariguama",
"estado":"SP",
"regiao":"Regiao Sudeste",
"latitude":"-23.4366",
"longitude":"-47.0608"
},
{
"id":"290205",
"nome":"Araças",
"estado":"BA",
"regiao":"Regiao Nordeste",
"latitude":"-12.22",
"longitude":"-38.2027"
},
{
"id":"230110",
"nome":"Aracati",
"estado":"CE",
"regiao":"Regiao Nordeste",
"latitude":"-4.55826",
"longitude":"-37.7679"
},
{
"id":"290200",
"nome":"Aracatu",
"estado":"BA",
"regiao":"Regiao Nordeste",
"latitude":"-14.428",
"longitude":"-41.4648"
},
{
"id":"350280",
"nome":"Araçatuba",
"estado":"SP",
"regiao":"Regiao Sudeste",
"latitude":"-21.2076",
"longitude":"-50.4401"
},
{
"id":"290210",
"nome":"Araci",
"estado":"BA",
"regiao":"Regiao Nordeste",
"latitude":"-11.3253",
"longitude":"-38.9584"
},
{
"id":"310330",
"nome":"Aracitaba",
"estado":"MG",
"regiao":"Regiao Sudeste",
"latitude":"-21.3446",
"longitude":"-43.3736"
},
{
"id":"230120",
"nome":"Aracoiaba",
"estado":"CE",
"regiao":"Regiao Nordeste",
"latitude":"-4.36872",
"longitude":"-38.8125"
},
{
"id":"260105",
"nome":"Araçoiaba",
"estado":"PE",
"regiao":"Regiao Sul",
"latitude":"-7.78391",
"longitude":"-35.0809"
},
{
"id":"350290",
"nome":"Araçoiaba da Serra",
"estado":"SP",
"regiao":"Regiao Sudeste",
"latitude":"-23.5029",
"longitude":"-47.6166"
},
{
"id":"320060",
"nome":"Aracruz",
"estado":"ES",
"regiao":"Regiao Sudeste",
"latitude":"-19.82",
"longitude":"-40.2764"
},
{
"id":"520160",
"nome":"Araçu",
"estado":"GO",
"regiao":"Regiao Centro-Oeste",
"latitude":"-16.3563",
"longitude":"-49.6804"
},
{
"id":"310340",
"nome":"Araçuaí",
"estado":"MG",
"regiao":"Regiao Sudeste",
"latitude":"-16.8523",
"longitude":"-42.0637"
},
{
"id":"520170",
"nome":"Aragarças",
"estado":"GO",
"regiao":"Regiao Centro-Oeste",
"latitude":"-15.8955",
"longitude":"-52.2372"
},
{
"id":"520180",
"nome":"Aragoiânia",
"estado":"GO",
"regiao":"Regiao Centro-Oeste",
"latitude":"-16.9087",
"longitude":"-49.4476"
},
{
"id":"170130",
"nome":"Aragominas",
"estado":"TO",
"regiao":"Regiao Norte",
"latitude":"-7.16005",
"longitude":"-48.5291"
},
{
"id":"170190",
"nome":"Araguacema",
"estado":"TO",
"regiao":"Regiao Norte",
"latitude":"-8.80755",
"longitude":"-49.5569"
},
{
"id":"170200",
"nome":"Araguaçu",
"estado":"TO",
"regiao":"Regiao Norte",
"latitude":"-12.9289",
"longitude":"-49.8231"
},
{
"id":"510100",
"nome":"Araguaiana",
"estado":"MT",
"regiao":"Regiao Centro-Oeste",
"latitude":"-15.7291",
"longitude":"-51.8341"
},
{
"id":"170210",
"nome":"Araguaína",
"estado":"TO",
"regiao":"Regiao Norte",
"latitude":"-7.19238",
"longitude":"-48.2044"
},
{
"id":"510120",
"nome":"Araguainha",
"estado":"MT",
"regiao":"Regiao Centro-Oeste",
"latitude":"-16.857",
"longitude":"-53.0318"
},
{
"id":"170215",
"nome":"Araguanã",
"estado":"TO",
"regiao":"Regiao Norte",
"latitude":"-6.58225",
"longitude":"-48.6395"
},
{
"id":"210087",
"nome":"Araguanã",
"estado":"MA",
"regiao":"Regiao Nordeste",
"latitude":"-2.94644",
"longitude":"-45.6589"
},
{
"id":"520215",
"nome":"Araguapaz",
"estado":"GO",
"regiao":"Regiao Centro-Oeste",
"latitude":"-15.0909",
"longitude":"-50.6315"
},
{
"id":"310350",
"nome":"Araguari",
"estado":"MG",
"regiao":"Regiao Sudeste",
"latitude":"-18.6456",
"longitude":"-48.1934"
},
{
"id":"170220",
"nome":"Araguatins",
"estado":"TO",
"regiao":"Regiao Norte",
"latitude":"-5.64659",
"longitude":"-48.1232"
},
{
"id":"210090",
"nome":"Araioses",
"estado":"MA",
"regiao":"Regiao Nordeste",
"latitude":"-2.89091",
"longitude":"-41.905"
},
{
"id":"500124",
"nome":"Aral Moreira",
"estado":"MS",
"regiao":"Regiao Centro-Oeste",
"latitude":"-22.9385",
"longitude":"-55.6334"
},
{
"id":"290220",
"nome":"Aramari",
"estado":"BA",
"regiao":"Regiao Nordeste",
"latitude":"-12.0884",
"longitude":"-38.4969"
},
{
"id":"430085",
"nome":"Arambaré",
"estado":"RS",
"regiao":"Regiao Sul",
"latitude":"-30.9092",
"longitude":"-51.5046"
},
{
"id":"210095",
"nome":"Arame",
"estado":"MA",
"regiao":"Regiao Nordeste",
"latitude":"-4.88347",
"longitude":"-46.0032"
},
{
"id":"350300",
"nome":"Aramina",
"estado":"SP",
"regiao":"Regiao Sudeste",
"latitude":"-20.0882",
"longitude":"-47.7873"
},
{
"id":"350310",
"nome":"Arandu",
"estado":"SP",
"regiao":"Regiao Sudeste",
"latitude":"-23.1386",
"longitude":"-49.0487"
},
{
"id":"310360",
"nome":"Arantina",
"estado":"MG",
"regiao":"Regiao Sudeste",
"latitude":"-21.9102",
"longitude":"-44.2555"
},
{
"id":"350315",
"nome":"Arapeí",
"estado":"SP",
"regiao":"Regiao Sudeste",
"latitude":"-22.6717",
"longitude":"-44.4441"
},
{
"id":"270030",
"nome":"Arapiraca",
"estado":"AL",
"regiao":"Regiao Nordeste",
"latitude":"-9.75487",
"longitude":"-36.6615"
},
{
"id":"170230",
"nome":"Arapoema",
"estado":"TO",
"regiao":"Regiao Norte",
"latitude":"-7.65463",
"longitude":"-49.0637"
},
{
"id":"310370",
"nome":"Araponga",
"estado":"MG",
"regiao":"Regiao Sudeste",
"latitude":"-20.6686",
"longitude":"-42.5178"
},
{
"id":"410150",
"nome":"Arapongas",
"estado":"PR",
"regiao":"Regiao Sul",
"latitude":"-23.4153",
"longitude":"-51.4259"
},
{
"id":"310375",
"nome":"Araporã",
"estado":"MG",
"regiao":"Regiao Sudeste",
"latitude":"-18.4357",
"longitude":"-49.1847"
},
{
"id":"410160",
"nome":"Arapoti",
"estado":"PR",
"regiao":"Regiao Sul",
"latitude":"-24.1548",
"longitude":"-49.8285"
},
{
"id":"310380",
"nome":"Arapuá",
"estado":"MG",
"regiao":"Regiao Sudeste",
"latitude":"-19.0268",
"longitude":"-46.1484"
},
{
"id":"410165",
"nome":"Arapuã",
"estado":"PR",
"regiao":"Regiao Sul",
"latitude":"-24.3132",
"longitude":"-51.7856"
},
{
"id":"510125",
"nome":"Araputanga",
"estado":"MT",
"regiao":"Regiao Centro-Oeste",
"latitude":"-15.4641",
"longitude":"-58.3425"
},
{
"id":"420130",
"nome":"Araquari",
"estado":"SC",
"regiao":"Regiao Sul",
"latitude":"-26.3754",
"longitude":"-48.7188"
},
{
"id":"250090",
"nome":"Arara",
"estado":"PB",
"regiao":"Regiao Nordeste",
"latitude":"-6.82813",
"longitude":"-35.7552"
},
{
"id":"420140",
"nome":"Araranguá",
"estado":"SC",
"regiao":"Regiao Sul",
"latitude":"-28.9356",
"longitude":"-49.4918"
},
{
"id":"350320",
"nome":"Araraquara",
"estado":"SP",
"regiao":"Regiao Sudeste",
"latitude":"-21.7845",
"longitude":"-48.178"
},
{
"id":"350330",
"nome":"Araras",
"estado":"SP",
"regiao":"Regiao Sudeste",
"latitude":"-22.3572",
"longitude":"-47.3842"
},
{
"id":"230125",
"nome":"Ararendá",
"estado":"CE",
"regiao":"Regiao Nordeste",
"latitude":"-4.74567",
"longitude":"-40.831"
},
{
"id":"210100",
"nome":"Arari",
"estado":"MA",
"regiao":"Regiao Nordeste",
"latitude":"-3.45214",
"longitude":"-44.7665"
},
{
"id":"430087",
"nome":"Araricá",
"estado":"RS",
"regiao":"Regiao Sul",
"latitude":"-29.6168",
"longitude":"-50.9291"
},
{
"id":"230130",
"nome":"Araripe",
"estado":"CE",
"regiao":"Regiao Nordeste",
"latitude":"-7.21319",
"longitude":"-40.1359"
},
{
"id":"260110",
"nome":"Araripina",
"estado":"PE",
"regiao":"Regiao Sul",
"latitude":"-7.57073",
"longitude":"-40.494"
},
{
"id":"330020",
"nome":"Araruama",
"estado":"RJ",
"regiao":"Regiao Sudeste",
"latitude":"-22.8697",
"longitude":"-42.3326"
},
{
"id":"250100",
"nome":"Araruna",
"estado":"PB",
"regiao":"Regiao Nordeste",
"latitude":"-6.54848",
"longitude":"-35.7498"
},
{
"id":"410170",
"nome":"Araruna",
"estado":"PR",
"regiao":"Regiao Sul",
"latitude":"-23.9315",
"longitude":"-52.5021"
},
{
"id":"290225",
"nome":"Arataca",
"estado":"BA",
"regiao":"Regiao Nordeste",
"latitude":"-15.2651",
"longitude":"-39.419"
},
{
"id":"430090",
"nome":"Aratiba",
"estado":"RS",
"regiao":"Regiao Sul",
"latitude":"-27.3978",
"longitude":"-52.2975"
},
{
"id":"230140",
"nome":"Aratuba",
"estado":"CE",
"regiao":"Regiao Nordeste",
"latitude":"-4.41229",
"longitude":"-39.0471"
},
{
"id":"290230",
"nome":"Aratuípe",
"estado":"BA",
"regiao":"Regiao Nordeste",
"latitude":"-13.0716",
"longitude":"-39.0038"
},
{
"id":"280040",
"nome":"Arauá",
"estado":"SE",
"regiao":"Regiao Nordeste",
"latitude":"-11.2614",
"longitude":"-37.6201"
},
{
"id":"410180",
"nome":"Araucária",
"estado":"PR",
"regiao":"Regiao Sul",
"latitude":"-25.5859",
"longitude":"-49.4047"
},
{
"id":"310390",
"nome":"Araújos",
"estado":"MG",
"regiao":"Regiao Sudeste",
"latitude":"-19.9405",
"longitude":"-45.1671"
},
{
"id":"310400",
"nome":"Araxá",
"estado":"MG",
"regiao":"Regiao Sudeste",
"latitude":"-19.5902",
"longitude":"-46.9438"
},
{
"id":"310410",
"nome":"Arceburgo",
"estado":"MG",
"regiao":"Regiao Sudeste",
"latitude":"-21.359",
"longitude":"-46.9401"
},
{
"id":"350335",
"nome":"Arco-íris",
"estado":"SP",
"regiao":"Regiao Sudeste",
"latitude":"-21.7728",
"longitude":"-50.466"
},
{
"id":"310420",
"nome":"Arcos",
"estado":"MG",
"regiao":"Regiao Sudeste",
"latitude":"-20.2863",
"longitude":"-45.5373"
},
{
"id":"260120",
"nome":"Arcoverde",
"estado":"PE",
"regiao":"Regiao Sul",
"latitude":"-8.41519",
"longitude":"-37.0577"
},
{
"id":"310430",
"nome":"Areado",
"estado":"MG",
"regiao":"Regiao Sudeste",
"latitude":"-21.3572",
"longitude":"-46.1421"
},
{
"id":"330022",
"nome":"Areal",
"estado":"RJ",
"regiao":"Regiao Sudeste",
"latitude":"-22.2283",
"longitude":"-43.1118"
},
{
"id":"350340",
"nome":"Arealva",
"estado":"SP",
"regiao":"Regiao Sudeste",
"latitude":"-22.031",
"longitude":"-48.9135"
},
{
"id":"250110",
"nome":"Areia",
"estado":"PB",
"regiao":"Regiao Nordeste",
"latitude":"-6.96396",
"longitude":"-35.6977"
},
{
"id":"240110",
"nome":"Areia Branca",
"estado":"RN",
"regiao":"Regiao Nordeste",
"latitude":"-4.95254",
"longitude":"-37.1252"
},
{
"id":"280050",
"nome":"Areia Branca",
"estado":"SE",
"regiao":"Regiao Nordeste",
"latitude":"-10.758",
"longitude":"-37.3251"
},
{
"id":"250115",
"nome":"Areia de Baraúnas",
"estado":"PB",
"regiao":"Regiao Nordeste",
"latitude":"-7.11702",
"longitude":"-36.9404"
},
{
"id":"250120",
"nome":"Areial",
"estado":"PB",
"regiao":"Regiao Nordeste",
"latitude":"-7.04789",
"longitude":"-35.9313"
},
{
"id":"350350",
"nome":"Areias",
"estado":"SP",
"regiao":"Regiao Sudeste",
"latitude":"-22.5786",
"longitude":"-44.6992"
},
{
"id":"350360",
"nome":"Areiópolis",
"estado":"SP",
"regiao":"Regiao Sudeste",
"latitude":"-22.6672",
"longitude":"-48.6681"
},
{
"id":"510130",
"nome":"Arenápolis",
"estado":"MT",
"regiao":"Regiao Centro-Oeste",
"latitude":"-14.4472",
"longitude":"-56.8437"
},
{
"id":"520235",
"nome":"Arenópolis",
"estado":"GO",
"regiao":"Regiao Centro-Oeste",
"latitude":"-16.3837",
"longitude":"-51.5563"
},
{
"id":"240120",
"nome":"Arês",
"estado":"RN",
"regiao":"Regiao Nordeste",
"latitude":"-6.18831",
"longitude":"-35.1608"
},
{
"id":"310440",
"nome":"Argirita",
"estado":"MG",
"regiao":"Regiao Sudeste",
"latitude":"-21.6083",
"longitude":"-42.8292"
},
{
"id":"310445",
"nome":"Aricanduva",
"estado":"MG",
"regiao":"Regiao Sudeste",
"latitude":"-17.8666",
"longitude":"-42.5533"
},
{
"id":"310450",
"nome":"Arinos",
"estado":"MG",
"regiao":"Regiao Sudeste",
"latitude":"-15.9187",
"longitude":"-46.1043"
},
{
"id":"510140",
"nome":"Aripuanã",
"estado":"MT",
"regiao":"Regiao Centro-Oeste",
"latitude":"-10.1723",
"longitude":"-59.4568"
},
{
"id":"110002",
"nome":"Ariquemes",
"estado":"RO",
"regiao":"Regiao Norte",
"latitude":"-9.90571",
"longitude":"-63.0325"
},
{
"id":"350370",
"nome":"Ariranha",
"estado":"SP",
"regiao":"Regiao Sudeste",
"latitude":"-21.1872",
"longitude":"-48.7904"
},
{
"id":"410185",
"nome":"Ariranha do Ivaí",
"estado":"PR",
"regiao":"Regiao Sul",
"latitude":"-24.3857",
"longitude":"-51.5839"
},
{
"id":"330023",
"nome":"Armação Dos Búzios",
"estado":"RJ",
"regiao":"Regiao Sudeste",
"latitude":"-22.7528",
"longitude":"-41.8846"
},
{
"id":"420150",
"nome":"Armazém",
"estado":"SC",
"regiao":"Regiao Sul",
"latitude":"-28.2448",
"longitude":"-49.0215"
},
{
"id":"230150",
"nome":"Arneiroz",
"estado":"CE",
"regiao":"Regiao Nordeste",
"latitude":"-6.3165",
"longitude":"-40.1653"
},
{
"id":"220090",
"nome":"Aroazes",
"estado":"PI",
"regiao":"Regiao Nordeste",
"latitude":"-6.11022",
"longitude":"-41.7822"
},
{
"id":"250130",
"nome":"Aroeiras",
"estado":"PB",
"regiao":"Regiao Nordeste",
"latitude":"-7.54473",
"longitude":"-35.7066"
},
{
"id":"220095",
"nome":"Aroeiras do Itaim",
"estado":"PI",
"regiao":"Regiao Nordeste",
"latitude":"-7.24502",
"longitude":"-41.5325"
},
{
"id":"220100",
"nome":"Arraial",
"estado":"PI",
"regiao":"Regiao Nordeste",
"latitude":"-6.65075",
"longitude":"-42.5418"
},
{
"id":"330025",
"nome":"Arraial do Cabo",
"estado":"RJ",
"regiao":"Regiao Sudeste",
"latitude":"-22.9774",
"longitude":"-42.0267"
},
{
"id":"170240",
"nome":"Arraias",
"estado":"TO",
"regiao":"Regiao Norte",
"latitude":"-12.9287",
"longitude":"-46.9359"
},
{
"id":"430100",
"nome":"Arroio do Meio",
"estado":"RS",
"regiao":"Regiao Sul",
"latitude":"-29.4014",
"longitude":"-51.9557"
},
{
"id":"430107",
"nome":"Arroio do Padre",
"estado":"RS",
"regiao":"Regiao Sul",
"latitude":"-31.4389",
"longitude":"-52.4246"
},
{
"id":"430105",
"nome":"Arroio do Sal",
"estado":"RS",
"regiao":"Regiao Sul",
"latitude":"-29.5439",
"longitude":"-49.8895"
},
{
"id":"430120",
"nome":"Arroio do Tigre",
"estado":"RS",
"regiao":"Regiao Sul",
"latitude":"-29.3348",
"longitude":"-53.0966"
},
{
"id":"430110",
"nome":"Arroio Dos Ratos",
"estado":"RS",
"regiao":"Regiao Sul",
"latitude":"-30.0875",
"longitude":"-51.7275"
},
{
"id":"430130",
"nome":"Arroio Grande",
"estado":"RS",
"regiao":"Regiao Sul",
"latitude":"-32.2327",
"longitude":"-53.0862"
},
{
"id":"420160",
"nome":"Arroio Trinta",
"estado":"SC",
"regiao":"Regiao Sul",
"latitude":"-26.9257",
"longitude":"-51.3407"
},
{
"id":"350380",
"nome":"Artur Nogueira",
"estado":"SP",
"regiao":"Regiao Sudeste",
"latitude":"-22.5727",
"longitude":"-47.1727"
},
{
"id":"520250",
"nome":"Aruanã",
"estado":"GO",
"regiao":"Regiao Centro-Oeste",
"latitude":"-14.9166",
"longitude":"-51.075"
},
{
"id":"350390",
"nome":"Arujá",
"estado":"SP",
"regiao":"Regiao Sudeste",
"latitude":"-23.3965",
"longitude":"-46.32"
},
{
"id":"420165",
"nome":"Arvoredo",
"estado":"SC",
"regiao":"Regiao Sul",
"latitude":"-27.0748",
"longitude":"-52.4543"
},
{
"id":"430140",
"nome":"Arvorezinha",
"estado":"RS",
"regiao":"Regiao Sul",
"latitude":"-28.8737",
"longitude":"-52.1781"
},
{
"id":"420170",
"nome":"Ascurra",
"estado":"SC",
"regiao":"Regiao Sul",
"latitude":"-26.9548",
"longitude":"-49.3783"
},
{
"id":"350395",
"nome":"Aspásia",
"estado":"SP",
"regiao":"Regiao Sudeste",
"latitude":"-20.16",
"longitude":"-50.728"
},
{
"id":"410190",
"nome":"Assaí",
"estado":"PR",
"regiao":"Regiao Sul",
"latitude":"-23.3697",
"longitude":"-50.8459"
},
{
"id":"230160",
"nome":"Assaré",
"estado":"CE",
"regiao":"Regiao Nordeste",
"latitude":"-6.8669",
"longitude":"-39.8689"
},
{
"id":"350400",
"nome":"Assis",
"estado":"SP",
"regiao":"Regiao Sudeste",
"latitude":"-22.66",
"longitude":"-50.4183"
},
{
"id":"120005",
"nome":"Assis Brasil",
"estado":"AC",
"regiao":"Regiao Norte",
"latitude":"-10.9298",
"longitude":"-69.5738"
},
{
"id":"410200",
"nome":"Assis Chateaubriand",
"estado":"PR",
"regiao":"Regiao Sul",
"latitude":"-24.4168",
"longitude":"-53.5213"
},
{
"id":"250135",
"nome":"Assunção",
"estado":"PB",
"regiao":"Regiao Nordeste",
"latitude":"-7.07231",
"longitude":"-36.725"
},
{
"id":"220105",
"nome":"Assunção do Piauí",
"estado":"PI",
"regiao":"Regiao Nordeste",
"latitude":"-5.865",
"longitude":"-41.0389"
},
{
"id":"310460",
"nome":"Astolfo Dutra",
"estado":"MG",
"regiao":"Regiao Sudeste",
"latitude":"-21.3184",
"longitude":"-42.8572"
},
{
"id":"410210",
"nome":"Astorga",
"estado":"PR",
"regiao":"Regiao Sul",
"latitude":"-23.2318",
"longitude":"-51.6668"
},
{
"id":"270040",
"nome":"Atalaia",
"estado":"AL",
"regiao":"Regiao Nordeste",
"latitude":"-9.5119",
"longitude":"-36.0086"
},
{
"id":"410220",
"nome":"Atalaia",
"estado":"PR",
"regiao":"Regiao Sul",
"latitude":"-23.1517",
"longitude":"-52.0551"
},
{
"id":"130020",
"nome":"Atalaia do Norte",
"estado":"AM",
"regiao":"Regiao Norte",
"latitude":"-4.37055",
"longitude":"-70.1967"
},
{
"id":"420180",
"nome":"Atalanta",
"estado":"SC",
"regiao":"Regiao Sul",
"latitude":"-27.4219",
"longitude":"-49.7789"
},
{
"id":"310470",
"nome":"Ataléia",
"estado":"MG",
"regiao":"Regiao Sudeste",
"latitude":"-18.0438",
"longitude":"-41.1149"
},
{
"id":"350410",
"nome":"Atibaia",
"estado":"SP",
"regiao":"Regiao Sudeste",
"latitude":"-23.1171",
"longitude":"-46.5563"
},
{
"id":"320070",
"nome":"Atilio Vivacqua",
"estado":"ES",
"regiao":"Regiao Sudeste",
"latitude":"-20.913",
"longitude":"-41.1986"
},
{
"id":"170255",
"nome":"Augustinópolis",
"estado":"TO",
"regiao":"Regiao Norte",
"latitude":"-5.46863",
"longitude":"-47.8863"
},
{
"id":"150090",
"nome":"Augusto Corrêa",
"estado":"PA",
"regiao":"Regiao Norte",
"latitude":"-1.05109",
"longitude":"-46.6147"
},
{
"id":"310480",
"nome":"Augusto de Lima",
"estado":"MG",
"regiao":"Regiao Sudeste",
"latitude":"-18.0997",
"longitude":"-44.2655"
},
{
"id":"430150",
"nome":"Augusto Pestana",
"estado":"RS",
"regiao":"Regiao Sul",
"latitude":"-28.5172",
"longitude":"-53.9883"
},
{
"id":"240130",
"nome":"Augusto Severo",
"estado":"RN",
"regiao":"Regiao Nordeste",
"latitude":"-5.86206",
"longitude":"-37.3135"
},
{
"id":"430155",
"nome":"Áurea",
"estado":"RS",
"regiao":"Regiao Sul",
"latitude":"-27.6936",
"longitude":"-52.0505"
},
{
"id":"290240",
"nome":"Aurelino Leal",
"estado":"BA",
"regiao":"Regiao Nordeste",
"latitude":"-14.321",
"longitude":"-39.329"
},
{
"id":"350420",
"nome":"Auriflama",
"estado":"SP",
"regiao":"Regiao Sudeste",
"latitude":"-20.6836",
"longitude":"-50.5572"
},
{
"id":"520260",
"nome":"Aurilândia",
"estado":"GO",
"regiao":"Regiao Centro-Oeste",
"latitude":"-16.6773",
"longitude":"-50.4641"
},
{
"id":"230170",
"nome":"Aurora",
"estado":"CE",
"regiao":"Regiao Nordeste",
"latitude":"-6.93349",
"longitude":"-38.9742"
},
{
"id":"420190",
"nome":"Aurora",
"estado":"SC",
"regiao":"Regiao Sul",
"latitude":"-27.3098",
"longitude":"-49.6295"
},
{
"id":"150095",
"nome":"Aurora do Pará",
"estado":"PA",
"regiao":"Regiao Norte",
"latitude":"-2.14898",
"longitude":"-47.5677"
},
{
"id":"170270",
"nome":"Aurora do Tocantins",
"estado":"TO",
"regiao":"Regiao Norte",
"latitude":"-12.7105",
"longitude":"-46.4076"
},
{
"id":"130030",
"nome":"Autazes",
"estado":"AM",
"regiao":"Regiao Norte",
"latitude":"-3.58574",
"longitude":"-59.1256"
},
{
"id":"350430",
"nome":"Avaí",
"estado":"SP",
"regiao":"Regiao Sudeste",
"latitude":"-22.1514",
"longitude":"-49.3356"
},
{
"id":"350440",
"nome":"Avanhandava",
"estado":"SP",
"regiao":"Regiao Sudeste",
"latitude":"-21.4584",
"longitude":"-49.9509"
},
{
"id":"350450",
"nome":"Avaré",
"estado":"SP",
"regiao":"Regiao Sudeste",
"latitude":"-23.1067",
"longitude":"-48.9251"
},
{
"id":"150100",
"nome":"Aveiro",
"estado":"PA",
"regiao":"Regiao Norte",
"latitude":"-3.60841",
"longitude":"-55.3199"
},
{
"id":"220110",
"nome":"Avelino Lopes",
"estado":"PI",
"regiao":"Regiao Nordeste",
"latitude":"-10.1345",
"longitude":"-43.9563"
},
{
"id":"520280",
"nome":"Avelinópolis",
"estado":"GO",
"regiao":"Regiao Centro-Oeste",
"latitude":"-16.4672",
"longitude":"-49.7579"
},
{
"id":"210110",
"nome":"Axixá",
"estado":"MA",
"regiao":"Regiao Nordeste",
"latitude":"-2.83939",
"longitude":"-44.062"
},
{
"id":"170290",
"nome":"Axixá do Tocantins",
"estado":"TO",
"regiao":"Regiao Norte",
"latitude":"-5.61275",
"longitude":"-47.7701"
},
{
"id":"170300",
"nome":"Babaçulândia",
"estado":"TO",
"regiao":"Regiao Norte",
"latitude":"-7.20923",
"longitude":"-47.7613"
},
{
"id":"210120",
"nome":"Bacabal",
"estado":"MA",
"regiao":"Regiao Nordeste",
"latitude":"-4.22447",
"longitude":"-44.7832"
},
{
"id":"210125",
"nome":"Bacabeira",
"estado":"MA",
"regiao":"Regiao Nordeste",
"latitude":"-2.96452",
"longitude":"-44.3164"
},
{
"id":"210130",
"nome":"Bacuri",
"estado":"MA",
"regiao":"Regiao Nordeste",
"latitude":"-1.6965",
"longitude":"-45.1328"
},
{
"id":"210135",
"nome":"Bacurituba",
"estado":"MA",
"regiao":"Regiao Nordeste",
"latitude":"-2.71",
"longitude":"-44.7329"
},
{
"id":"350460",
"nome":"Bady Bassitt",
"estado":"SP",
"regiao":"Regiao Sudeste",
"latitude":"-20.9197",
"longitude":"-49.4385"
},
{
"id":"310490",
"nome":"Baependi",
"estado":"MG",
"regiao":"Regiao Sudeste",
"latitude":"-21.957",
"longitude":"-44.8874"
},
{
"id":"430160",
"nome":"Bagé",
"estado":"RS",
"regiao":"Regiao Sul",
"latitude":"-31.3297",
"longitude":"-54.0999"
},
{
"id":"150110",
"nome":"Bagre",
"estado":"PA",
"regiao":"Regiao Norte",
"latitude":"-1.90057",
"longitude":"-50.1987"
},
{
"id":"250140",
"nome":"Baía da Traição",
"estado":"PB",
"regiao":"Regiao Nordeste",
"latitude":"-6.69209",
"longitude":"-34.9381"
},
{
"id":"240140",
"nome":"Baía Formosa",
"estado":"RN",
"regiao":"Regiao Nordeste",
"latitude":"-6.37161",
"longitude":"-35.0033"
},
{
"id":"290250",
"nome":"Baianópolis",
"estado":"BA",
"regiao":"Regiao Nordeste",
"latitude":"-12.3016",
"longitude":"-44.5388"
},
{
"id":"150120",
"nome":"Baião",
"estado":"PA",
"regiao":"Regiao Norte",
"latitude":"-2.79021",
"longitude":"-49.6694"
},
{
"id":"290260",
"nome":"Baixa Grande",
"estado":"BA",
"regiao":"Regiao Nordeste",
"latitude":"-11.9519",
"longitude":"-40.169"
},
{
"id":"220115",
"nome":"Baixa Grande do Ribeiro",
"estado":"PI",
"regiao":"Regiao Nordeste",
"latitude":"-7.84903",
"longitude":"-45.219"
},
{
"id":"230180",
"nome":"Baixio",
"estado":"CE",
"regiao":"Regiao Nordeste",
"latitude":"-6.71945",
"longitude":"-38.7134"
},
{
"id":"320080",
"nome":"Baixo Guandu",
"estado":"ES",
"regiao":"Regiao Sudeste",
"latitude":"-19.5213",
"longitude":"-41.0109"
},
{
"id":"350470",
"nome":"Balbinos",
"estado":"SP",
"regiao":"Regiao Sudeste",
"latitude":"-21.8963",
"longitude":"-49.3619"
},
{
"id":"310500",
"nome":"Baldim",
"estado":"MG",
"regiao":"Regiao Sudeste",
"latitude":"-19.2832",
"longitude":"-43.9613"
},
{
"id":"520310",
"nome":"Baliza",
"estado":"GO",
"regiao":"Regiao Centro-Oeste",
"latitude":"-16.1966",
"longitude":"-52.5393"
},
{
"id":"420195",
"nome":"Balneário Arroio do Silva",
"estado":"SC",
"regiao":"Regiao Sul",
"latitude":"-28.9806",
"longitude":"-49.4237"
},
{
"id":"420205",
"nome":"Balneário Barra do Sul",
"estado":"SC",
"regiao":"Regiao Sul",
"latitude":"-26.4597",
"longitude":"-48.6123"
},
{
"id":"420200",
"nome":"Balneário Camboriú",
"estado":"SC",
"regiao":"Regiao Sul",
"latitude":"-26.9926",
"longitude":"-48.6352"
},
{
"id":"420207",
"nome":"Balneário Gaivota",
"estado":"SC",
"regiao":"Regiao Sul",
"latitude":"-29.1527",
"longitude":"-49.5841"
},
{
"id":"430163",
"nome":"Balneário Pinhal",
"estado":"RS",
"regiao":"Regiao Sul",
"latitude":"-30.2419",
"longitude":"-50.2337"
},
{
"id":"422000",
"nome":"Balneário Rincão",
"estado":"SC",
"regiao":"Regiao Sul",
"latitude":"-28.8314",
"longitude":"-49.2352"
},
{
"id":"410230",
"nome":"Balsa Nova",
"estado":"PR",
"regiao":"Regiao Sul",
"latitude":"-25.5804",
"longitude":"-49.6291"
},
{
"id":"350480",
"nome":"Bálsamo",
"estado":"SP",
"regiao":"Regiao Sudeste",
"latitude":"-20.7348",
"longitude":"-49.5865"
},
{
"id":"210140",
"nome":"Balsas",
"estado":"MA",
"regiao":"Regiao Nordeste",
"latitude":"-7.53214",
"longitude":"-46.0372"
},
{
"id":"310510",
"nome":"Bambuí",
"estado":"MG",
"regiao":"Regiao Sudeste",
"latitude":"-20.0166",
"longitude":"-45.9754"
},
{
"id":"230185",
"nome":"Banabuiú",
"estado":"CE",
"regiao":"Regiao Nordeste",
"latitude":"-5.30454",
"longitude":"-38.9132"
},
{
"id":"350490",
"nome":"Bananal",
"estado":"SP",
"regiao":"Regiao Sudeste",
"latitude":"-22.6819",
"longitude":"-44.3281"
},
{
"id":"250150",
"nome":"Bananeiras",
"estado":"PB",
"regiao":"Regiao Nordeste",
"latitude":"-6.74775",
"longitude":"-35.6246"
},
{
"id":"310520",
"nome":"Bandeira",
"estado":"MG",
"regiao":"Regiao Sudeste",
"latitude":"-15.8783",
"longitude":"-40.5622"
},
{
"id":"310530",
"nome":"Bandeira do Sul",
"estado":"MG",
"regiao":"Regiao Sudeste",
"latitude":"-21.7308",
"longitude":"-46.3833"
},
{
"id":"420208",
"nome":"Bandeirante",
"estado":"SC",
"regiao":"Regiao Sul",
"latitude":"-26.7705",
"longitude":"-53.6413"
},
{
"id":"410240",
"nome":"Bandeirantes",
"estado":"PR",
"regiao":"Regiao Sul",
"latitude":"-23.1078",
"longitude":"-50.3704"
},
{
"id":"500150",
"nome":"Bandeirantes",
"estado":"MS",
"regiao":"Regiao Centro-Oeste",
"latitude":"-19.9275",
"longitude":"-54.3585"
},
{
"id":"170305",
"nome":"Bandeirantes do Tocantins",
"estado":"TO",
"regiao":"Regiao Norte",
"latitude":"-7.75612",
"longitude":"-48.5836"
},
{
"id":"150125",
"nome":"Bannach",
"estado":"PA",
"regiao":"Regiao Norte",
"latitude":"-7.34779",
"longitude":"-50.3959"
},
{
"id":"290265",
"nome":"Banzaê",
"estado":"BA",
"regiao":"Regiao Nordeste",
"latitude":"-10.5788",
"longitude":"-38.6212"
},
{
"id":"430165",
"nome":"Barão",
"estado":"RS",
"regiao":"Regiao Sul",
"latitude":"-29.3725",
"longitude":"-51.4949"
},
{
"id":"350500",
"nome":"Barão de Antonina",
"estado":"SP",
"regiao":"Regiao Sudeste",
"latitude":"-23.6284",
"longitude":"-49.5634"
},
{
"id":"310540",
"nome":"Barão de Cocais",
"estado":"MG",
"regiao":"Regiao Sudeste",
"latitude":"-19.9389",
"longitude":"-43.4755"
},
{
"id":"430170",
"nome":"Barão de Cotegipe",
"estado":"RS",
"regiao":"Regiao Sul",
"latitude":"-27.6208",
"longitude":"-52.3798"
},
{
"id":"210150",
"nome":"Barão de Grajaú",
"estado":"MA",
"regiao":"Regiao Nordeste",
"latitude":"-6.74463",
"longitude":"-43.0261"
},
{
"id":"510160",
"nome":"Barão de Melgaço",
"estado":"MT",
"regiao":"Regiao Centro-Oeste",
"latitude":"-16.2067",
"longitude":"-55.9623"
},
{
"id":"310550",
"nome":"Barão de Monte Alto",
"estado":"MG",
"regiao":"Regiao Sudeste",
"latitude":"-21.2444",
"longitude":"-42.2372"
},
{
"id":"430175",
"nome":"Barão do Triunfo",
"estado":"RS",
"regiao":"Regiao Sul",
"latitude":"-30.3891",
"longitude":"-51.7384"
},
{
"id":"240145",
"nome":"Baraúna",
"estado":"RN",
"regiao":"Regiao Nordeste",
"latitude":"-5.06977",
"longitude":"-37.6129"
},
{
"id":"250153",
"nome":"Baraúna",
"estado":"PB",
"regiao":"Regiao Nordeste",
"latitude":"-6.63484",
"longitude":"-36.2601"
},
{
"id":"310560",
"nome":"Barbacena",
"estado":"MG",
"regiao":"Regiao Sudeste",
"latitude":"-21.2214",
"longitude":"-43.7703"
},
{
"id":"230190",
"nome":"Barbalha",
"estado":"CE",
"regiao":"Regiao Nordeste",
"latitude":"-7.2982",
"longitude":"-39.3021"
},
{
"id":"350510",
"nome":"Barbosa",
"estado":"SP",
"regiao":"Regiao Sudeste",
"latitude":"-21.2657",
"longitude":"-49.9518"
},
{
"id":"410250",
"nome":"Barbosa Ferraz",
"estado":"PR",
"regiao":"Regiao Sul",
"latitude":"-24.0334",
"longitude":"-52.004"
},
{
"id":"150130",
"nome":"Barcarena",
"estado":"PA",
"regiao":"Regiao Norte",
"latitude":"-1.51187",
"longitude":"-48.6195"
},
{
"id":"240150",
"nome":"Barcelona",
"estado":"RN",
"regiao":"Regiao Nordeste",
"latitude":"-5.94284",
"longitude":"-35.9247"
},
{
"id":"130040",
"nome":"Barcelos",
"estado":"AM",
"regiao":"Regiao Norte",
"latitude":"-0.983373",
"longitude":"-62.9311"
},
{
"id":"350520",
"nome":"Bariri",
"estado":"SP",
"regiao":"Regiao Sudeste",
"latitude":"-22.073",
"longitude":"-48.7438"
},
{
"id":"290270",
"nome":"Barra",
"estado":"BA",
"regiao":"Regiao Nordeste",
"latitude":"-11.0859",
"longitude":"-43.1459"
},
{
"id":"350530",
"nome":"Barra Bonita",
"estado":"SP",
"regiao":"Regiao Sudeste",
"latitude":"-22.4909",
"longitude":"-48.5583"
},
{
"id":"420209",
"nome":"Barra Bonita",
"estado":"SC",
"regiao":"Regiao Sul",
"latitude":"-26.654",
"longitude":"-53.44"
},
{
"id":"220117",
"nome":"Barra D'alcântara",
"estado":"PI",
"regiao":"Regiao Nordeste",
"latitude":"-6.51645",
"longitude":"-42.1146"
},
{
"id":"290280",
"nome":"Barra da Estiva",
"estado":"BA",
"regiao":"Regiao Nordeste",
"latitude":"-13.6237",
"longitude":"-41.3347"
},
{
"id":"260130",
"nome":"Barra de Guabiraba",
"estado":"PE",
"regiao":"Regiao Sul",
"latitude":"-8.42075",
"longitude":"-35.6585"
},
{
"id":"250160",
"nome":"Barra de Santa Rosa",
"estado":"PB",
"regiao":"Regiao Nordeste",
"latitude":"-6.71816",
"longitude":"-36.0671"
},
{
"id":"250157",
"nome":"Barra de Santana",
"estado":"PB",
"regiao":"Regiao Nordeste",
"latitude":"-7.51809",
"longitude":"-35.9913"
},
{
"id":"270050",
"nome":"Barra de Santo Antônio",
"estado":"AL",
"regiao":"Regiao Nordeste",
"latitude":"-9.4023",
"longitude":"-35.5101"
},
{
"id":"320090",
"nome":"Barra de São Francisco",
"estado":"ES",
"regiao":"Regiao Sudeste",
"latitude":"-18.7548",
"longitude":"-40.8965"
},
{
"id":"250170",
"nome":"Barra de São Miguel",
"estado":"PB",
"regiao":"Regiao Nordeste",
"latitude":"-7.74603",
"longitude":"-36.3209"
},
{
"id":"270060",
"nome":"Barra de São Miguel",
"estado":"AL",
"regiao":"Regiao Nordeste",
"latitude":"-9.83842",
"longitude":"-35.9057"
},
{
"id":"510170",
"nome":"Barra do Bugres",
"estado":"MT",
"regiao":"Regiao Centro-Oeste",
"latitude":"-15.0702",
"longitude":"-57.1878"
},
{
"id":"350535",
"nome":"Barra do Chapéu",
"estado":"SP",
"regiao":"Regiao Sudeste",
"latitude":"-24.4722",
"longitude":"-49.0238"
},
{
"id":"290290",
"nome":"Barra do Choça",
"estado":"BA",
"regiao":"Regiao Nordeste",
"latitude":"-14.8654",
"longitude":"-40.5791"
},
{
"id":"210160",
"nome":"Barra do Corda",
"estado":"MA",
"regiao":"Regiao Nordeste",
"latitude":"-5.49682",
"longitude":"-45.2485"
},
{
"id":"510180",
"nome":"Barra do Garças",
"estado":"MT",
"regiao":"Regiao Centro-Oeste",
"latitude":"-15.8804",
"longitude":"-52.264"
},
{
"id":"430185",
"nome":"Barra do Guarita",
"estado":"RS",
"regiao":"Regiao Sul",
"latitude":"-27.1927",
"longitude":"-53.7109"
},
{
"id":"410270",
"nome":"Barra do Jacaré",
"estado":"PR",
"regiao":"Regiao Sul",
"latitude":"-23.116",
"longitude":"-50.1842"
},
{
"id":"290300",
"nome":"Barra do Mendes",
"estado":"BA",
"regiao":"Regiao Nordeste",
"latitude":"-11.81",
"longitude":"-42.059"
},
{
"id":"170307",
"nome":"Barra do Ouro",
"estado":"TO",
"regiao":"Regiao Norte",
"latitude":"-7.69593",
"longitude":"-47.6776"
},
{
"id":"330030",
"nome":"Barra do Piraí",
"estado":"RJ",
"regiao":"Regiao Sudeste",
"latitude":"-22.4715",
"longitude":"-43.8269"
},
{
"id":"430187",
"nome":"Barra do Quaraí",
"estado":"RS",
"regiao":"Regiao Sul",
"latitude":"-30.2029",
"longitude":"-57.5497"
},
{
"id":"430190",
"nome":"Barra do Ribeiro",
"estado":"RS",
"regiao":"Regiao Sul",
"latitude":"-30.2939",
"longitude":"-51.3014"
},
{
"id":"430192",
"nome":"Barra do Rio Azul",
"estado":"RS",
"regiao":"Regiao Sul",
"latitude":"-27.4069",
"longitude":"-52.4084"
},
{
"id":"290310",
"nome":"Barra do Rocha",
"estado":"BA",
"regiao":"Regiao Nordeste",
"latitude":"-14.2",
"longitude":"-39.5991"
},
{
"id":"350540",
"nome":"Barra do Turvo",
"estado":"SP",
"regiao":"Regiao Sudeste",
"latitude":"-24.759",
"longitude":"-48.5013"
},
{
"id":"280060",
"nome":"Barra Dos Coqueiros",
"estado":"SE",
"regiao":"Regiao Nordeste",
"latitude":"-10.8996",
"longitude":"-37.0323"
},
{
"id":"430195",
"nome":"Barra Funda",
"estado":"RS",
"regiao":"Regiao Sul",
"latitude":"-27.9205",
"longitude":"-53.0391"
},
{
"id":"310570",
"nome":"Barra Longa",
"estado":"MG",
"regiao":"Regiao Sudeste",
"latitude":"-20.2869",
"longitude":"-43.0402"
},
{
"id":"330040",
"nome":"Barra Mansa",
"estado":"RJ",
"regiao":"Regiao Sudeste",
"latitude":"-22.5481",
"longitude":"-44.1752"
},
{
"id":"420210",
"nome":"Barra Velha",
"estado":"SC",
"regiao":"Regiao Sul",
"latitude":"-26.637",
"longitude":"-48.6933"
},
{
"id":"410260",
"nome":"Barracão",
"estado":"PR",
"regiao":"Regiao Sul",
"latitude":"-26.2502",
"longitude":"-53.6324"
},
{
"id":"430180",
"nome":"Barracão",
"estado":"RS",
"regiao":"Regiao Sul",
"latitude":"-27.6739",
"longitude":"-51.4585"
},
{
"id":"220120",
"nome":"Barras",
"estado":"PI",
"regiao":"Regiao Nordeste",
"latitude":"-4.24468",
"longitude":"-42.2922"
},
{
"id":"230195",
"nome":"Barreira",
"estado":"CE",
"regiao":"Regiao Nordeste",
"latitude":"-4.28921",
"longitude":"-38.6429"
},
{
"id":"290320",
"nome":"Barreiras",
"estado":"BA",
"regiao":"Regiao Nordeste",
"latitude":"-12.1439",
"longitude":"-44.9968"
},
{
"id":"220130",
"nome":"Barreiras do Piauí",
"estado":"PI",
"regiao":"Regiao Nordeste",
"latitude":"-9.9296",
"longitude":"-45.4702"
},
{
"id":"130050",
"nome":"Barreirinha",
"estado":"AM",
"regiao":"Regiao Norte",
"latitude":"-2.79886",
"longitude":"-57.0679"
},
{
"id":"210170",
"nome":"Barreirinhas",
"estado":"MA",
"regiao":"Regiao Nordeste",
"latitude":"-2.75863",
"longitude":"-42.8232"
},
{
"id":"260140",
"nome":"Barreiros",
"estado":"PE",
"regiao":"Regiao Sul",
"latitude":"-8.81605",
"longitude":"-35.1832"
},
{
"id":"350550",
"nome":"Barretos",
"estado":"SP",
"regiao":"Regiao Sudeste",
"latitude":"-20.5531",
"longitude":"-48.5698"
},
{
"id":"350560",
"nome":"Barrinha",
"estado":"SP",
"regiao":"Regiao Sudeste",
"latitude":"-21.1864",
"longitude":"-48.1636"
},
{
"id":"230200",
"nome":"Barro",
"estado":"CE",
"regiao":"Regiao Nordeste",
"latitude":"-7.17188",
"longitude":"-38.7741"
},
{
"id":"290323",
"nome":"Barro Alto",
"estado":"BA",
"regiao":"Regiao Nordeste",
"latitude":"-11.7605",
"longitude":"-41.9054"
},
{
"id":"520320",
"nome":"Barro Alto",
"estado":"GO",
"regiao":"Regiao Centro-Oeste",
"latitude":"-14.9658",
"longitude":"-48.9086"
},
{
"id":"220140",
"nome":"Barro Duro",
"estado":"PI",
"regiao":"Regiao Nordeste",
"latitude":"-5.81673",
"longitude":"-42.5147"
},
{
"id":"290327",
"nome":"Barrocas",
"estado":"BA",
"regiao":"Regiao Nordeste",
"latitude":"-11.5272",
"longitude":"-39.0776"
},
{
"id":"170310",
"nome":"Barrolândia",
"estado":"TO",
"regiao":"Regiao Norte",
"latitude":"-9.83404",
"longitude":"-48.7252"
},
{
"id":"230205",
"nome":"Barroquinha",
"estado":"CE",
"regiao":"Regiao Nordeste",
"latitude":"-3.02051",
"longitude":"-41.1358"
},
{
"id":"430200",
"nome":"Barros Cassal",
"estado":"RS",
"regiao":"Regiao Sul",
"latitude":"-29.0947",
"longitude":"-52.5836"
},
{
"id":"310590",
"nome":"Barroso",
"estado":"MG",
"regiao":"Regiao Sudeste",
"latitude":"-21.1907",
"longitude":"-43.972"
},
{
"id":"350570",
"nome":"Barueri",
"estado":"SP",
"regiao":"Regiao Sudeste",
"latitude":"-23.5057",
"longitude":"-46.879"
},
{
"id":"350580",
"nome":"Bastos",
"estado":"SP",
"regiao":"Regiao Sudeste",
"latitude":"-21.921",
"longitude":"-50.7357"
},
{
"id":"500190",
"nome":"Bataguassu",
"estado":"MS",
"regiao":"Regiao Centro-Oeste",
"latitude":"-21.7159",
"longitude":"-52.4221"
},
{
"id":"220150",
"nome":"Batalha",
"estado":"PI",
"regiao":"Regiao Nordeste",
"latitude":"-4.0223",
"longitude":"-42.0787"
},
{
"id":"270070",
"nome":"Batalha",
"estado":"AL",
"regiao":"Regiao Nordeste",
"latitude":"-9.6742",
"longitude":"-37.133"
},
{
"id":"350590",
"nome":"Batatais",
"estado":"SP",
"regiao":"Regiao Sudeste",
"latitude":"-20.8929",
"longitude":"-47.5921"
},
{
"id":"500200",
"nome":"Batayporã",
"estado":"MS",
"regiao":"Regiao Centro-Oeste",
"latitude":"-22.2944",
"longitude":"-53.2705"
},
{
"id":"230210",
"nome":"Baturité",
"estado":"CE",
"regiao":"Regiao Nordeste",
"latitude":"-4.32598",
"longitude":"-38.8812"
},
{
"id":"350600",
"nome":"Bauru",
"estado":"SP",
"regiao":"Regiao Sudeste",
"latitude":"-22.3246",
"longitude":"-49.0871"
},
{
"id":"250180",
"nome":"Bayeux",
"estado":"PB",
"regiao":"Regiao Nordeste",
"latitude":"-7.1238",
"longitude":"-34.9293"
},
{
"id":"350610",
"nome":"Bebedouro",
"estado":"SP",
"regiao":"Regiao Sudeste",
"latitude":"-20.9491",
"longitude":"-48.4791"
},
{
"id":"230220",
"nome":"Beberibe",
"estado":"CE",
"regiao":"Regiao Nordeste",
"latitude":"-4.17741",
"longitude":"-38.1271"
},
{
"id":"230230",
"nome":"Bela Cruz",
"estado":"CE",
"regiao":"Regiao Nordeste",
"latitude":"-3.04996",
"longitude":"-40.1671"
},
{
"id":"500210",
"nome":"Bela Vista",
"estado":"MS",
"regiao":"Regiao Centro-Oeste",
"latitude":"-22.1073",
"longitude":"-56.5263"
},
{
"id":"410275",
"nome":"Bela Vista da Caroba",
"estado":"PR",
"regiao":"Regiao Sul",
"latitude":"-25.8842",
"longitude":"-53.6725"
},
{
"id":"520330",
"nome":"Bela Vista de Goiás",
"estado":"GO",
"regiao":"Regiao Centro-Oeste",
"latitude":"-16.9693",
"longitude":"-48.9513"
},
{
"id":"310600",
"nome":"Bela Vista de Minas",
"estado":"MG",
"regiao":"Regiao Sudeste",
"latitude":"-19.8302",
"longitude":"-43.0922"
},
{
"id":"210177",
"nome":"Bela Vista do Maranhão",
"estado":"MA",
"regiao":"Regiao Nordeste",
"latitude":"-3.72618",
"longitude":"-45.3075"
},
{
"id":"410280",
"nome":"Bela Vista do Paraíso",
"estado":"PR",
"regiao":"Regiao Sul",
"latitude":"-22.9937",
"longitude":"-51.1927"
},
{
"id":"220155",
"nome":"Bela Vista do Piauí",
"estado":"PI",
"regiao":"Regiao Nordeste",
"latitude":"-7.98809",
"longitude":"-41.8675"
},
{
"id":"420213",
"nome":"Bela Vista do Toldo",
"estado":"SC",
"regiao":"Regiao Sul",
"latitude":"-26.2746",
"longitude":"-50.4664"
},
{
"id":"210173",
"nome":"Belágua",
"estado":"MA",
"regiao":"Regiao Nordeste",
"latitude":"-3.15485",
"longitude":"-43.5122"
},
{
"id":"250190",
"nome":"Belém",
"estado":"PB",
"regiao":"Regiao Nordeste",
"latitude":"-6.74261",
"longitude":"-35.5166"
},
{
"id":"270080",
"nome":"Belém",
"estado":"AL",
"regiao":"Regiao Nordeste",
"latitude":"-9.57047",
"longitude":"-36.4904"
},
{
"id":"260150",
"nome":"Belém de Maria",
"estado":"PE",
"regiao":"Regiao Sul",
"latitude":"-8.62504",
"longitude":"-35.8335"
},
{
"id":"260160",
"nome":"Belém de São Francisco",
"estado":"PE",
"regiao":"Regiao Sul",
"latitude":"-8.75046",
"longitude":"-38.9623"
},
{
"id":"250200",
"nome":"Belém do Brejo do Cruz",
"estado":"PB",
"regiao":"Regiao Nordeste",
"latitude":"-6.18515",
"longitude":"-37.5348"
},
{
"id":"220157",
"nome":"Belém do Piauí",
"estado":"PI",
"regiao":"Regiao Nordeste",
"latitude":"-7.36652",
"longitude":"-40.9688"
},
{
"id":"330045",
"nome":"Belford Roxo",
"estado":"RJ",
"regiao":"Regiao Sudeste",
"latitude":"-22.764",
"longitude":"-43.3992"
},
{
"id":"310610",
"nome":"Belmiro Braga",
"estado":"MG",
"regiao":"Regiao Sudeste",
"latitude":"-21.944",
"longitude":"-43.4084"
},
{
"id":"290340",
"nome":"Belmonte",
"estado":"BA",
"regiao":"Regiao Nordeste",
"latitude":"-15.8608",
"longitude":"-38.8758"
},
{
"id":"420215",
"nome":"Belmonte",
"estado":"SC",
"regiao":"Regiao Sul",
"latitude":"-26.843",
"longitude":"-53.5758"
},
{
"id":"290350",
"nome":"Belo Campo",
"estado":"BA",
"regiao":"Regiao Nordeste",
"latitude":"-15.0334",
"longitude":"-41.2652"
},
{
"id":"260170",
"nome":"Belo Jardim",
"estado":"PE",
"regiao":"Regiao Sul",
"latitude":"-8.3313",
"longitude":"-36.4258"
},
{
"id":"270090",
"nome":"Belo Monte",
"estado":"AL",
"regiao":"Regiao Nordeste",
"latitude":"-9.82272",
"longitude":"-37.277"
},
{
"id":"310630",
"nome":"Belo Oriente",
"estado":"MG",
"regiao":"Regiao Sudeste",
"latitude":"-19.2199",
"longitude":"-42.4828"
},
{
"id":"310640",
"nome":"Belo Vale",
"estado":"MG",
"regiao":"Regiao Sudeste",
"latitude":"-20.4077",
"longitude":"-44.0275"
},
{
"id":"150145",
"nome":"Belterra",
"estado":"PA",
"regiao":"Regiao Norte",
"latitude":"-2.63609",
"longitude":"-54.9374"
},
{
"id":"220160",
"nome":"Beneditinos",
"estado":"PI",
"regiao":"Regiao Nordeste",
"latitude":"-5.45676",
"longitude":"-42.3638"
},
{
"id":"210180",
"nome":"Benedito Leite",
"estado":"MA",
"regiao":"Regiao Nordeste",
"latitude":"-7.21037",
"longitude":"-44.5577"
},
{
"id":"420220",
"nome":"Benedito Novo",
"estado":"SC",
"regiao":"Regiao Sul",
"latitude":"-26.781",
"longitude":"-49.3593"
},
{
"id":"130060",
"nome":"Benjamin Constant",
"estado":"AM",
"regiao":"Regiao Norte",
"latitude":"-4.37768",
"longitude":"-70.0342"
},
{
"id":"430205",
"nome":"Benjamin Constant do Sul",
"estado":"RS",
"regiao":"Regiao Sul",
"latitude":"-27.5086",
"longitude":"-52.5995"
},
{
"id":"350620",
"nome":"Bento de Abreu",
"estado":"SP",
"regiao":"Regiao Sudeste",
"latitude":"-21.2686",
"longitude":"-50.814"
},
{
"id":"240160",
"nome":"Bento Fernandes",
"estado":"RN",
"regiao":"Regiao Nordeste",
"latitude":"-5.69906",
"longitude":"-35.813"
},
{
"id":"430210",
"nome":"Bento Gonçalves",
"estado":"RS",
"regiao":"Regiao Sul",
"latitude":"-29.1662",
"longitude":"-51.5165"
},
{
"id":"210190",
"nome":"Bequimão",
"estado":"MA",
"regiao":"Regiao Nordeste",
"latitude":"-2.44162",
"longitude":"-44.7842"
},
{
"id":"310650",
"nome":"Berilo",
"estado":"MG",
"regiao":"Regiao Sudeste",
"latitude":"-16.9567",
"longitude":"-42.4606"
},
{
"id":"310665",
"nome":"Berizal",
"estado":"MG",
"regiao":"Regiao Sudeste",
"latitude":"-15.61",
"longitude":"-41.7432"
},
{
"id":"250205",
"nome":"Bernardino Batista",
"estado":"PB",
"regiao":"Regiao Nordeste",
"latitude":"-6.44572",
"longitude":"-38.5521"
},
{
"id":"350630",
"nome":"Bernardino de Campos",
"estado":"SP",
"regiao":"Regiao Sudeste",
"latitude":"-23.0164",
"longitude":"-49.4679"
},
{
"id":"210193",
"nome":"Bernardo do Mearim",
"estado":"MA",
"regiao":"Regiao Nordeste",
"latitude":"-4.62666",
"longitude":"-44.7608"
},
{
"id":"170320",
"nome":"Bernardo Sayão",
"estado":"TO",
"regiao":"Regiao Norte",
"latitude":"-7.87481",
"longitude":"-48.8893"
},
{
"id":"350635",
"nome":"Bertioga",
"estado":"SP",
"regiao":"Regiao Sudeste",
"latitude":"-23.8486",
"longitude":"-46.1396"
},
{
"id":"220170",
"nome":"Bertolínia",
"estado":"PI",
"regiao":"Regiao Nordeste",
"latitude":"-7.63338",
"longitude":"-43.9498"
},
{
"id":"310660",
"nome":"Bertópolis",
"estado":"MG",
"regiao":"Regiao Sudeste",
"latitude":"-17.059",
"longitude":"-40.58"
},
{
"id":"130063",
"nome":"Beruri",
"estado":"AM",
"regiao":"Regiao Norte",
"latitude":"-3.89874",
"longitude":"-61.3616"
},
{
"id":"260180",
"nome":"Betânia",
"estado":"PE",
"regiao":"Regiao Sul",
"latitude":"-8.26787",
"longitude":"-38.0345"
},
{
"id":"220173",
"nome":"Betânia do Piauí",
"estado":"PI",
"regiao":"Regiao Nordeste",
"latitude":"-8.14376",
"longitude":"-40.7989"
},
{
"id":"310670",
"nome":"Betim",
"estado":"MG",
"regiao":"Regiao Sudeste",
"latitude":"-19.9668",
"longitude":"-44.2008"
},
{
"id":"260190",
"nome":"Bezerros",
"estado":"PE",
"regiao":"Regiao Sul",
"latitude":"-8.2328",
"longitude":"-35.796"
},
{
"id":"310680",
"nome":"Bias Fortes",
"estado":"MG",
"regiao":"Regiao Sudeste",
"latitude":"-21.602",
"longitude":"-43.7574"
},
{
"id":"310690",
"nome":"Bicas",
"estado":"MG",
"regiao":"Regiao Sudeste",
"latitude":"-21.7232",
"longitude":"-43.056"
},
{
"id":"420230",
"nome":"Biguaçu",
"estado":"SC",
"regiao":"Regiao Sul",
"latitude":"-27.496",
"longitude":"-48.6598"
},
{
"id":"350640",
"nome":"Bilac",
"estado":"SP",
"regiao":"Regiao Sudeste",
"latitude":"-21.404",
"longitude":"-50.4746"
},
{
"id":"310700",
"nome":"Biquinhas",
"estado":"MG",
"regiao":"Regiao Sudeste",
"latitude":"-18.7754",
"longitude":"-45.4974"
},
{
"id":"350650",
"nome":"Birigui",
"estado":"SP",
"regiao":"Regiao Sudeste",
"latitude":"-21.291",
"longitude":"-50.3432"
},
{
"id":"350660",
"nome":"Biritiba-mirim",
"estado":"SP",
"regiao":"Regiao Sudeste",
"latitude":"-23.5698",
"longitude":"-46.0407"
},
{
"id":"290360",
"nome":"Biritinga",
"estado":"BA",
"regiao":"Regiao Nordeste",
"latitude":"-11.6072",
"longitude":"-38.8051"
},
{
"id":"410290",
"nome":"Bituruna",
"estado":"PR",
"regiao":"Regiao Sul",
"latitude":"-26.1607",
"longitude":"-51.5518"
},
{
"id":"420240",
"nome":"Blumenau",
"estado":"SC",
"regiao":"Regiao Sul",
"latitude":"-26.9155",
"longitude":"-49.0709"
},
{
"id":"310710",
"nome":"Boa Esperança",
"estado":"MG",
"regiao":"Regiao Sudeste",
"latitude":"-21.0927",
"longitude":"-45.5612"
},
{
"id":"320100",
"nome":"Boa Esperança",
"estado":"ES",
"regiao":"Regiao Sudeste",
"latitude":"-18.5395",
"longitude":"-40.3025"
},
{
"id":"410300",
"nome":"Boa Esperança",
"estado":"PR",
"regiao":"Regiao Sul",
"latitude":"-24.2467",
"longitude":"-52.7876"
},
{
"id":"410302",
"nome":"Boa Esperança do Iguaçu",
"estado":"PR",
"regiao":"Regiao Sul",
"latitude":"-25.6324",
"longitude":"-53.2108"
},
{
"id":"350670",
"nome":"Boa Esperança do Sul",
"estado":"SP",
"regiao":"Regiao Sudeste",
"latitude":"-21.9918",
"longitude":"-48.3906"
},
{
"id":"220177",
"nome":"Boa Hora",
"estado":"PI",
"regiao":"Regiao Nordeste",
"latitude":"-4.41404",
"longitude":"-42.1357"
},
{
"id":"290370",
"nome":"Boa Nova",
"estado":"BA",
"regiao":"Regiao Nordeste",
"latitude":"-14.3598",
"longitude":"-40.2064"
},
{
"id":"250210",
"nome":"Boa Ventura",
"estado":"PB",
"regiao":"Regiao Nordeste",
"latitude":"-7.40982",
"longitude":"-38.2113"
},
{
"id":"410304",
"nome":"Boa Ventura de São Roque",
"estado":"PR",
"regiao":"Regiao Sul",
"latitude":"-24.8688",
"longitude":"-51.6276"
},
{
"id":"230240",
"nome":"Boa Viagem",
"estado":"CE",
"regiao":"Regiao Nordeste",
"latitude":"-5.11258",
"longitude":"-39.7337"
},
{
"id":"140010",
"nome":"Boa Vista",
"estado":"RR",
"regiao":"Regiao Norte",
"latitude":"2.82384",
"longitude":"-60.6753"
},
{
"id":"250215",
"nome":"Boa Vista",
"estado":"PB",
"regiao":"Regiao Nordeste",
"latitude":"-7.26365",
"longitude":"-36.2357"
},
{
"id":"410305",
"nome":"Boa Vista da Aparecida",
"estado":"PR",
"regiao":"Regiao Sul",
"latitude":"-25.4308",
"longitude":"-53.4117"
},
{
"id":"430215",
"nome":"Boa Vista Das Missões",
"estado":"RS",
"regiao":"Regiao Sul",
"latitude":"-27.6671",
"longitude":"-53.3102"
},
{
"id":"430220",
"nome":"Boa Vista do Buricá",
"estado":"RS",
"regiao":"Regiao Sul",
"latitude":"-27.6693",
"longitude":"-54.1082"
},
{
"id":"430222",
"nome":"Boa Vista do Cadeado",
"estado":"RS",
"regiao":"Regiao Sul",
"latitude":"-28.5791",
"longitude":"-53.8108"
},
{
"id":"210197",
"nome":"Boa Vista do Gurupi",
"estado":"MA",
"regiao":"Regiao Nordeste",
"latitude":"-1.77614",
"longitude":"-46.3002"
},
{
"id":"430223",
"nome":"Boa Vista do Incra",
"estado":"RS",
"regiao":"Regiao Sul",
"latitude":"-28.8185",
"longitude":"-53.391"
},
{
"id":"130068",
"nome":"Boa Vista do Ramos",
"estado":"AM",
"regiao":"Regiao Norte",
"latitude":"-2.97409",
"longitude":"-57.5873"
},
{
"id":"430225",
"nome":"Boa Vista do Sul",
"estado":"RS",
"regiao":"Regiao Sul",
"latitude":"-29.3544",
"longitude":"-51.6687"
},
{
"id":"290380",
"nome":"Boa Vista do Tupim",
"estado":"BA",
"regiao":"Regiao Nordeste",
"latitude":"-12.6498",
"longitude":"-40.6064"
},
{
"id":"270100",
"nome":"Boca da Mata",
"estado":"AL",
"regiao":"Regiao Nordeste",
"latitude":"-9.64308",
"longitude":"-36.2125"
},
{
"id":"130070",
"nome":"Boca do Acre",
"estado":"AM",
"regiao":"Regiao Norte",
"latitude":"-8.74232",
"longitude":"-67.3919"
},
{
"id":"220180",
"nome":"Bocaina",
"estado":"PI",
"regiao":"Regiao Nordeste",
"latitude":"-6.94124",
"longitude":"-41.3168"
},
{
"id":"350680",
"nome":"Bocaina",
"estado":"SP",
"regiao":"Regiao Sudeste",
"latitude":"-22.1365",
"longitude":"-48.523"
},
{
"id":"310720",
"nome":"Bocaina de Minas",
"estado":"MG",
"regiao":"Regiao Sudeste",
"latitude":"-22.1697",
"longitude":"-44.3972"
},
{
"id":"420243",
"nome":"Bocaina do Sul",
"estado":"SC",
"regiao":"Regiao Sul",
"latitude":"-27.7455",
"longitude":"-49.9423"
},
{
"id":"310730",
"nome":"Bocaiúva",
"estado":"MG",
"regiao":"Regiao Sudeste",
"latitude":"-17.1135",
"longitude":"-43.8104"
},
{
"id":"410310",
"nome":"Bocaiúva do Sul",
"estado":"PR",
"regiao":"Regiao Sul",
"latitude":"-25.2066",
"longitude":"-49.1141"
},
{
"id":"240165",
"nome":"Bodó",
"estado":"RN",
"regiao":"Regiao Nordeste",
"latitude":"-5.98027",
"longitude":"-36.4167"
},
{
"id":"260200",
"nome":"Bodocó",
"estado":"PE",
"regiao":"Regiao Sul",
"latitude":"-7.77759",
"longitude":"-39.9338"
},
{
"id":"500215",
"nome":"Bodoquena",
"estado":"MS",
"regiao":"Regiao Centro-Oeste",
"latitude":"-20.537",
"longitude":"-56.7127"
},
{
"id":"350690",
"nome":"Bofete",
"estado":"SP",
"regiao":"Regiao Sudeste",
"latitude":"-23.1055",
"longitude":"-48.2582"
},
{
"id":"350700",
"nome":"Boituva",
"estado":"SP",
"regiao":"Regiao Sudeste",
"latitude":"-23.2855",
"longitude":"-47.6786"
},
{
"id":"260210",
"nome":"Bom Conselho",
"estado":"PE",
"regiao":"Regiao Sul",
"latitude":"-9.16919",
"longitude":"-36.6857"
},
{
"id":"310740",
"nome":"Bom Despacho",
"estado":"MG",
"regiao":"Regiao Sudeste",
"latitude":"-19.7386",
"longitude":"-45.2622"
},
{
"id":"210200",
"nome":"Bom Jardim",
"estado":"MA",
"regiao":"Regiao Nordeste",
"latitude":"-3.54129",
"longitude":"-45.606"
},
{
"id":"260220",
"nome":"Bom Jardim",
"estado":"PE",
"regiao":"Regiao Sul",
"latitude":"-7.79695",
"longitude":"-35.5784"
},
{
"id":"330050",
"nome":"Bom Jardim",
"estado":"RJ",
"regiao":"Regiao Sudeste",
"latitude":"-22.1545",
"longitude":"-42.4251"
},
{
"id":"420250",
"nome":"Bom Jardim da Serra",
"estado":"SC",
"regiao":"Regiao Sul",
"latitude":"-28.3377",
"longitude":"-49.6373"
},
{
"id":"520340",
"nome":"Bom Jardim de Goiás",
"estado":"GO",
"regiao":"Regiao Centro-Oeste",
"latitude":"-16.2063",
"longitude":"-52.1728"
},
{
"id":"310750",
"nome":"Bom Jardim de Minas",
"estado":"MG",
"regiao":"Regiao Sudeste",
"latitude":"-21.9479",
"longitude":"-44.1885"
},
{
"id":"220190",
"nome":"Bom Jesus",
"estado":"PI",
"regiao":"Regiao Nordeste",
"latitude":"-9.07124",
"longitude":"-44.359"
},
{
"id":"240170",
"nome":"Bom Jesus",
"estado":"RN",
"regiao":"Regiao Nordeste",
"latitude":"-5.98648",
"longitude":"-35.5792"
},
{
"id":"250220",
"nome":"Bom Jesus",
"estado":"PB",
"regiao":"Regiao Nordeste",
"latitude":"-6.81601",
"longitude":"-38.6453"
},
{
"id":"420253",
"nome":"Bom Jesus",
"estado":"SC",
"regiao":"Regiao Sul",
"latitude":"-26.7326",
"longitude":"-52.3919"
},
{
"id":"430230",
"nome":"Bom Jesus",
"estado":"RS",
"regiao":"Regiao Sul",
"latitude":"-28.6697",
"longitude":"-50.4295"
},
{
"id":"290390",
"nome":"Bom Jesus da Lapa",
"estado":"BA",
"regiao":"Regiao Nordeste",
"latitude":"-13.2506",
"longitude":"-43.4108"
},
{
"id":"310760",
"nome":"Bom Jesus da Penha",
"estado":"MG",
"regiao":"Regiao Sudeste",
"latitude":"-21.0148",
"longitude":"-46.5174"
},
{
"id":"290395",
"nome":"Bom Jesus da Serra",
"estado":"BA",
"regiao":"Regiao Nordeste",
"latitude":"-14.3663",
"longitude":"-40.5126"
},
{
"id":"210203",
"nome":"Bom Jesus Das Selvas",
"estado":"MA",
"regiao":"Regiao Nordeste",
"latitude":"-4.47638",
"longitude":"-46.8641"
},
{
"id":"520350",
"nome":"Bom Jesus de Goiás",
"estado":"GO",
"regiao":"Regiao Centro-Oeste",
"latitude":"-18.2173",
"longitude":"-49.74"
},
{
"id":"310770",
"nome":"Bom Jesus do Amparo",
"estado":"MG",
"regiao":"Regiao Sudeste",
"latitude":"-19.7054",
"longitude":"-43.4782"
},
{
"id":"510185",
"nome":"Bom Jesus do Araguaia",
"estado":"MT",
"regiao":"Regiao Centro-Oeste",
"latitude":"-12.1706",
"longitude":"-51.5032"
},
{
"id":"310780",
"nome":"Bom Jesus do Galho",
"estado":"MG",
"regiao":"Regiao Sudeste",
"latitude":"-19.836",
"longitude":"-42.3165"
},
{
"id":"330060",
"nome":"Bom Jesus do Itabapoana",
"estado":"RJ",
"regiao":"Regiao Sudeste",
"latitude":"-21.1449",
"longitude":"-41.6822"
},
{
"id":"320110",
"nome":"Bom Jesus do Norte",
"estado":"ES",
"regiao":"Regiao Sudeste",
"latitude":"-21.1173",
"longitude":"-41.6731"
},
{
"id":"420257",
"nome":"Bom Jesus do Oeste",
"estado":"SC",
"regiao":"Regiao Sul",
"latitude":"-26.6927",
"longitude":"-53.0967"
},
{
"id":"410315",
"nome":"Bom Jesus do Sul",
"estado":"PR",
"regiao":"Regiao Sul",
"latitude":"-26.1958",
"longitude":"-53.5955"
},
{
"id":"150157",
"nome":"Bom Jesus do Tocantins",
"estado":"PA",
"regiao":"Regiao Norte",
"latitude":"-5.0424",
"longitude":"-48.6047"
},
{
"id":"170330",
"nome":"Bom Jesus do Tocantins",
"estado":"TO",
"regiao":"Regiao Norte",
"latitude":"-8.96306",
"longitude":"-48.165"
},
{
"id":"350710",
"nome":"Bom Jesus Dos Perdões",
"estado":"SP",
"regiao":"Regiao Sudeste",
"latitude":"-23.1356",
"longitude":"-46.4675"
},
{
"id":"210207",
"nome":"Bom Lugar",
"estado":"MA",
"regiao":"Regiao Nordeste",
"latitude":"-4.37311",
"longitude":"-45.0326"
},
{
"id":"430235",
"nome":"Bom Princípio",
"estado":"RS",
"regiao":"Regiao Sul",
"latitude":"-29.4856",
"longitude":"-51.3548"
},
{
"id":"220191",
"nome":"Bom Princípio do Piauí",
"estado":"PI",
"regiao":"Regiao Nordeste",
"latitude":"-3.19631",
"longitude":"-41.6403"
},
{
"id":"430237",
"nome":"Bom Progresso",
"estado":"RS",
"regiao":"Regiao Sul",
"latitude":"-27.5399",
"longitude":"-53.8716"
},
{
"id":"310790",
"nome":"Bom Repouso",
"estado":"MG",
"regiao":"Regiao Sudeste",
"latitude":"-22.4675",
"longitude":"-46.144"
},
{
"id":"420260",
"nome":"Bom Retiro",
"estado":"SC",
"regiao":"Regiao Sul",
"latitude":"-27.799",
"longitude":"-49.487"
},
{
"id":"430240",
"nome":"Bom Retiro do Sul",
"estado":"RS",
"regiao":"Regiao Sul",
"latitude":"-29.6071",
"longitude":"-51.9456"
},
{
"id":"250230",
"nome":"Bom Sucesso",
"estado":"PB",
"regiao":"Regiao Nordeste",
"latitude":"-6.44176",
"longitude":"-37.9234"
},
{
"id":"310800",
"nome":"Bom Sucesso",
"estado":"MG",
"regiao":"Regiao Sudeste",
"latitude":"-21.0329",
"longitude":"-44.7537"
},
{
"id":"410320",
"nome":"Bom Sucesso",
"estado":"PR",
"regiao":"Regiao Sul",
"latitude":"-23.7063",
"longitude":"-51.7671"
},
{
"id":"350715",
"nome":"Bom Sucesso de Itararé",
"estado":"SP",
"regiao":"Regiao Sudeste",
"latitude":"-24.3155",
"longitude":"-49.1451"
},
{
"id":"410322",
"nome":"Bom Sucesso do Sul",
"estado":"PR",
"regiao":"Regiao Sul",
"latitude":"-26.0731",
"longitude":"-52.8353"
},
{
"id":"420245",
"nome":"Bombinhas",
"estado":"SC",
"regiao":"Regiao Sul",
"latitude":"-27.1382",
"longitude":"-48.5146"
},
{
"id":"140015",
"nome":"Bonfim",
"estado":"RR",
"regiao":"Regiao Norte",
"latitude":"3.36161",
"longitude":"-59.8333"
},
{
"id":"310810",
"nome":"Bonfim",
"estado":"MG",
"regiao":"Regiao Sudeste",
"latitude":"-20.3302",
"longitude":"-44.2366"
},
{
"id":"220192",
"nome":"Bonfim do Piauí",
"estado":"PI",
"regiao":"Regiao Nordeste",
"latitude":"-9.1605",
"longitude":"-42.8865"
},
{
"id":"520355",
"nome":"Bonfinópolis",
"estado":"GO",
"regiao":"Regiao Centro-Oeste",
"latitude":"-16.6173",
"longitude":"-48.9616"
},
{
"id":"310820",
"nome":"Bonfinópolis de Minas",
"estado":"MG",
"regiao":"Regiao Sudeste",
"latitude":"-16.568",
"longitude":"-45.9839"
},
{
"id":"290400",
"nome":"Boninal",
"estado":"BA",
"regiao":"Regiao Nordeste",
"latitude":"-12.7069",
"longitude":"-41.8286"
},
{
"id":"150160",
"nome":"Bonito",
"estado":"PA",
"regiao":"Regiao Norte",
"latitude":"-1.36745",
"longitude":"-47.3066"
},
{
"id":"260230",
"nome":"Bonito",
"estado":"PE",
"regiao":"Regiao Sul",
"latitude":"-8.47163",
"longitude":"-35.7292"
},
{
"id":"290405",
"nome":"Bonito",
"estado":"BA",
"regiao":"Regiao Nordeste",
"latitude":"-11.9668",
"longitude":"-41.2647"
},
{
"id":"500220",
"nome":"Bonito",
"estado":"MS",
"regiao":"Regiao Centro-Oeste",
"latitude":"-21.1261",
"longitude":"-56.4836"
},
{
"id":"310825",
"nome":"Bonito de Minas",
"estado":"MG",
"regiao":"Regiao Sudeste",
"latitude":"-15.3231",
"longitude":"-44.7543"
},
{
"id":"250240",
"nome":"Bonito de Santa fé",
"estado":"PB",
"regiao":"Regiao Nordeste",
"latitude":"-7.31341",
"longitude":"-38.5133"
},
{
"id":"520357",
"nome":"Bonópolis",
"estado":"GO",
"regiao":"Regiao Centro-Oeste",
"latitude":"-13.6329",
"longitude":"-49.8106"
},
{
"id":"250250",
"nome":"Boqueirão",
"estado":"PB",
"regiao":"Regiao Nordeste",
"latitude":"-7.487",
"longitude":"-36.1309"
},
{
"id":"430245",
"nome":"Boqueirão do Leão",
"estado":"RS",
"regiao":"Regiao Sul",
"latitude":"-29.3046",
"longitude":"-52.4284"
},
{
"id":"220194",
"nome":"Boqueirão do Piauí",
"estado":"PI",
"regiao":"Regiao Nordeste",
"latitude":"-4.48181",
"longitude":"-42.1212"
},
{
"id":"280067",
"nome":"Boquim",
"estado":"SE",
"regiao":"Regiao Nordeste",
"latitude":"-11.1397",
"longitude":"-37.6195"
},
{
"id":"290410",
"nome":"Boquira",
"estado":"BA",
"regiao":"Regiao Nordeste",
"latitude":"-12.8205",
"longitude":"-42.7324"
},
{
"id":"350720",
"nome":"Borá",
"estado":"SP",
"regiao":"Regiao Sudeste",
"latitude":"-22.2696",
"longitude":"-50.5409"
},
{
"id":"350730",
"nome":"Boracéia",
"estado":"SP",
"regiao":"Regiao Sudeste",
"latitude":"-22.1926",
"longitude":"-48.7808"
},
{
"id":"130080",
"nome":"Borba",
"estado":"AM",
"regiao":"Regiao Norte",
"latitude":"-4.39154",
"longitude":"-59.5874"
},
{
"id":"250270",
"nome":"Borborema",
"estado":"PB",
"regiao":"Regiao Nordeste",
"latitude":"-6.80199",
"longitude":"-35.6187"
},
{
"id":"350740",
"nome":"Borborema",
"estado":"SP",
"regiao":"Regiao Sudeste",
"latitude":"-21.6214",
"longitude":"-49.0741"
},
{
"id":"310830",
"nome":"Borda da Mata",
"estado":"MG",
"regiao":"Regiao Sudeste",
"latitude":"-22.2707",
"longitude":"-46.1653"
},
{
"id":"350745",
"nome":"Borebi",
"estado":"SP",
"regiao":"Regiao Sudeste",
"latitude":"-22.5728",
"longitude":"-48.9707"
},
{
"id":"410330",
"nome":"Borrazópolis",
"estado":"PR",
"regiao":"Regiao Sul",
"latitude":"-23.9366",
"longitude":"-51.5875"
},
{
"id":"430250",
"nome":"Bossoroca",
"estado":"RS",
"regiao":"Regiao Sul",
"latitude":"-28.7291",
"longitude":"-54.9035"
},
{
"id":"310840",
"nome":"Botelhos",
"estado":"MG",
"regiao":"Regiao Sudeste",
"latitude":"-21.6412",
"longitude":"-46.391"
},
{
"id":"350750",
"nome":"Botucatu",
"estado":"SP",
"regiao":"Regiao Sudeste",
"latitude":"-22.8837",
"longitude":"-48.4437"
},
{
"id":"310850",
"nome":"Botumirim",
"estado":"MG",
"regiao":"Regiao Sudeste",
"latitude":"-16.8657",
"longitude":"-43.0086"
},
{
"id":"290420",
"nome":"Botuporã",
"estado":"BA",
"regiao":"Regiao Nordeste",
"latitude":"-13.3772",
"longitude":"-42.5163"
},
{
"id":"420270",
"nome":"Botuverá",
"estado":"SC",
"regiao":"Regiao Sul",
"latitude":"-27.2007",
"longitude":"-49.0689"
},
{
"id":"430258",
"nome":"Bozano",
"estado":"RS",
"regiao":"Regiao Sul",
"latitude":"-28.3659",
"longitude":"-53.772"
},
{
"id":"420280",
"nome":"Braço do Norte",
"estado":"SC",
"regiao":"Regiao Sul",
"latitude":"-28.2681",
"longitude":"-49.1701"
},